{
"type": "FeatureCollection",
"name": "school",
"crs": { "type": "name", "properties": { "name": "urn:ogc:def:crs:OGC:1.3:CRS84" } },
"features": [
{ "type": "Feature", "properties": { "CULTURE_": 65100.0, "CULTURE_ID": 65100.0, "CUL_PTYPE": 6100.0, "CUL_PNAME": "โรงเรียนพหลโยธิน", "DESC_": "โรงเรียน", "REMARK": null }, "geometry": { "type": "Point", "coordinates": [ 100.615629549701367, 13.949554394090116 ] } },
{ "type": "Feature", "properties": { "CULTURE_": 65102.0, "CULTURE_ID": 65102.0, "CUL_PTYPE": 6100.0, "CUL_PNAME": "โรงเรียนเปรมประชา", "DESC_": "โรงเรียน", "REMARK": null }, "geometry": { "type": "Point", "coordinates": [ 100.608124554681567, 13.948275901516038 ] } },
{ "type": "Feature", "properties": { "CULTURE_": 65111.0, "CULTURE_ID": 65111.0, "CUL_PTYPE": 6100.0, "CUL_PNAME": "โรงเรียนบำรุงวิวรรณวิทยา", "DESC_": "โรงเรียน", "REMARK": null }, "geometry": { "type": "Point", "coordinates": [ 100.583630184789897, 13.939053663587224 ] } },
{ "type": "Feature", "properties": { "CULTURE_": 65112.0, "CULTURE_ID": 65112.0, "CUL_PTYPE": 6100.0, "CUL_PNAME": "โรงเรียนอนุบาลธรรมาภรณ์", "DESC_": "โรงเรียน", "REMARK": null }, "geometry": { "type": "Point", "coordinates": [ 100.586410840910332, 13.938990654748004 ] } },
{ "type": "Feature", "properties": { "CULTURE_": 65116.0, "CULTURE_ID": 65116.0, "CUL_PTYPE": 6100.0, "CUL_PNAME": "โรงเรียนเจริญวิทย์ศึกษา", "DESC_": "โรงเรียน", "REMARK": null }, "geometry": { "type": "Point", "coordinates": [ 100.606104553001529, 13.93584688350554 ] } },
{ "type": "Feature", "properties": { "CULTURE_": 65120.0, "CULTURE_ID": 65120.0, "CUL_PTYPE": 6100.0, "CUL_PNAME": "โรงเรียนอนุบาลจุฬาทิพย์", "DESC_": "โรงเรียน", "REMARK": null }, "geometry": { "type": "Point", "coordinates": [ 100.62820553495601, 13.934726377897801 ] } },
{ "type": "Feature", "properties": { "CULTURE_": 65123.0, "CULTURE_ID": 65123.0, "CUL_PTYPE": 6100.0, "CUL_PNAME": "โรงเรียนดอนเมืองทหารอากาศบำรุง", "DESC_": "โรงเรียน", "REMARK": null }, "geometry": { "type": "Point", "coordinates": [ 100.605765795596326, 13.931803637582659 ] } },
{ "type": "Feature", "properties": { "CULTURE_": 65126.0, "CULTURE_ID": 65126.0, "CUL_PTYPE": 6100.0, "CUL_PNAME": "โรงเรียนศรีอนุบาล", "DESC_": "โรงเรียน", "REMARK": null }, "geometry": { "type": "Point", "coordinates": [ 100.62714780430322, 13.929844169538638 ] } },
{ "type": "Feature", "properties": { "CULTURE_": 65127.0, "CULTURE_ID": 65127.0, "CUL_PTYPE": 6100.0, "CUL_PNAME": "โรงเรียนวัดสายไหม", "DESC_": "โรงเรียน", "REMARK": null }, "geometry": { "type": "Point", "coordinates": [ 100.659447390276767, 13.929169829943497 ] } },
{ "type": "Feature", "properties": { "CULTURE_": 65128.0, "CULTURE_ID": 65128.0, "CUL_PTYPE": 6100.0, "CUL_PNAME": "วิทยาลัยเทคนิคดอนเมือง", "DESC_": "โรงเรียน", "REMARK": null }, "geometry": { "type": "Point", "coordinates": [ 100.580592799200659, 13.928407147241003 ] } },
{ "type": "Feature", "properties": { "CULTURE_": 65129.0, "CULTURE_ID": 65129.0, "CUL_PTYPE": 6100.0, "CUL_PNAME": "โรงเรียนสีกัน", "DESC_": "โรงเรียน", "REMARK": null }, "geometry": { "type": "Point", "coordinates": [ 100.59836317006004, 13.927498009286042 ] } },
{ "type": "Feature", "properties": { "CULTURE_": 65130.0, "CULTURE_ID": 65130.0, "CUL_PTYPE": 6100.0, "CUL_PNAME": "โรงเรียนพระฤทัยดอนเมือง", "DESC_": "โรงเรียน", "REMARK": null }, "geometry": { "type": "Point", "coordinates": [ 100.589347627332174, 13.927033179513211 ] } },
{ "type": "Feature", "properties": { "CULTURE_": 65132.0, "CULTURE_ID": 65132.0, "CUL_PTYPE": 6100.0, "CUL_PNAME": "โรงเรียนอนุบาลบ้านอัมรินทร์", "DESC_": "โรงเรียน", "REMARK": null }, "geometry": { "type": "Point", "coordinates": [ 100.644708052188534, 13.923118926737176 ] } },
{ "type": "Feature", "properties": { "CULTURE_": 65133.0, "CULTURE_ID": 65133.0, "CUL_PTYPE": 6100.0, "CUL_PNAME": "โรงเรียนผ่องเพ็ญวิทยาดอนเมือง", "DESC_": "โรงเรียน", "REMARK": null }, "geometry": { "type": "Point", "coordinates": [ 100.595710622417258, 13.922763720387197 ] } },
{ "type": "Feature", "properties": { "CULTURE_": 65134.0, "CULTURE_ID": 65134.0, "CUL_PTYPE": 6100.0, "CUL_PNAME": "โรงเรียนวรนาถวิทยา", "DESC_": "โรงเรียน", "REMARK": null }, "geometry": { "type": "Point", "coordinates": [ 100.681258536881472, 13.92209880862665 ] } },
{ "type": "Feature", "properties": { "CULTURE_": 65135.0, "CULTURE_ID": 65135.0, "CUL_PTYPE": 6100.0, "CUL_PNAME": "โรงเรียนวัดดอนเมือง", "DESC_": "โรงเรียน", "REMARK": null }, "geometry": { "type": "Point", "coordinates": [ 100.600982299489473, 13.921541163622425 ] } },
{ "type": "Feature", "properties": { "CULTURE_": 65138.0, "CULTURE_ID": 65138.0, "CUL_PTYPE": 6100.0, "CUL_PNAME": "โรงเรียนประชานุกูล", "DESC_": "โรงเรียน", "REMARK": null }, "geometry": { "type": "Point", "coordinates": [ 100.635828269327078, 13.91904519626001 ] } },
{ "type": "Feature", "properties": { "CULTURE_": 65139.0, "CULTURE_ID": 65139.0, "CUL_PTYPE": 6100.0, "CUL_PNAME": "โรงเรียนวัดหนองใหญ่", "DESC_": "โรงเรียน", "REMARK": null }, "geometry": { "type": "Point", "coordinates": [ 100.686025943031296, 13.918227266231476 ] } },
{ "type": "Feature", "properties": { "CULTURE_": 65142.0, "CULTURE_ID": 65142.0, "CUL_PTYPE": 6100.0, "CUL_PNAME": "โรงเรียนอนุบาลมะลิวรรณวิทยา", "DESC_": "โรงเรียน", "REMARK": null }, "geometry": { "type": "Point", "coordinates": [ 100.633588508718361, 13.917544944462938 ] } },
{ "type": "Feature", "properties": { "CULTURE_": 65143.0, "CULTURE_ID": 65143.0, "CUL_PTYPE": 6100.0, "CUL_PNAME": "โรงเรียนบริบูรณ์ศิลป์ศึกษา", "DESC_": "โรงเรียน", "REMARK": null }, "geometry": { "type": "Point", "coordinates": [ 100.595334778995735, 13.915994869182038 ] } },
{ "type": "Feature", "properties": { "CULTURE_": 65144.0, "CULTURE_ID": 65144.0, "CUL_PTYPE": 6100.0, "CUL_PNAME": "โรงเรียนวัดเวฬุวนาราม", "DESC_": "โรงเรียน", "REMARK": null }, "geometry": { "type": "Point", "coordinates": [ 100.565635652611263, 13.91479926863081 ] } },
{ "type": "Feature", "properties": { "CULTURE_": 65146.0, "CULTURE_ID": 65146.0, "CUL_PTYPE": 6100.0, "CUL_PNAME": "โรงเรียนเมืองทองนิเวศน์1", "DESC_": "โรงเรียน", "REMARK": null }, "geometry": { "type": "Point", "coordinates": [ 100.563901388407345, 13.909229896320923 ] } },
{ "type": "Feature", "properties": { "CULTURE_": 65147.0, "CULTURE_ID": 65147.0, "CUL_PTYPE": 6100.0, "CUL_PNAME": "โรงเรียนวัดเกาะสุวรรณาราม", "DESC_": "โรงเรียน", "REMARK": null }, "geometry": { "type": "Point", "coordinates": [ 100.634035153219671, 13.908492217295715 ] } },
{ "type": "Feature", "properties": { "CULTURE_": 65148.0, "CULTURE_ID": 65148.0, "CUL_PTYPE": 6100.0, "CUL_PNAME": "โรงเรียนสุเหร่าสามวา", "DESC_": "โรงเรียน", "REMARK": null }, "geometry": { "type": "Point", "coordinates": [ 100.727845270149658, 13.906517661465518 ] } },
{ "type": "Feature", "properties": { "CULTURE_": 65149.0, "CULTURE_ID": 65149.0, "CUL_PTYPE": 6100.0, "CUL_PNAME": "โรงเรียนระเบียบศึกษา", "DESC_": "โรงเรียน", "REMARK": null }, "geometry": { "type": "Point", "coordinates": [ 100.627488097842502, 13.906650305744385 ] } },
{ "type": "Feature", "properties": { "CULTURE_": 65153.0, "CULTURE_ID": 65153.0, "CUL_PTYPE": 6100.0, "CUL_PNAME": "โรงเรียนประเทืองทิพย์วิทยา", "DESC_": "โรงเรียน", "REMARK": null }, "geometry": { "type": "Point", "coordinates": [ 100.627064212719034, 13.905186493929845 ] } },
{ "type": "Feature", "properties": { "CULTURE_": 65154.0, "CULTURE_ID": 65154.0, "CUL_PTYPE": 6100.0, "CUL_PNAME": "โรงเรียนออเงิน", "DESC_": "โรงเรียน", "REMARK": null }, "geometry": { "type": "Point", "coordinates": [ 100.665397209053936, 13.90419080923388 ] } },
{ "type": "Feature", "properties": { "CULTURE_": 65155.0, "CULTURE_ID": 65155.0, "CUL_PTYPE": 6100.0, "CUL_PNAME": "โรงเรียนอนุบาลปิยพงษ์วิทยา2", "DESC_": "โรงเรียน", "REMARK": null }, "geometry": { "type": "Point", "coordinates": [ 100.672219272260733, 13.902288438880616 ] } },
{ "type": "Feature", "properties": { "CULTURE_": 65156.0, "CULTURE_ID": 65156.0, "CUL_PTYPE": 6100.0, "CUL_PNAME": "โรงเรียนเคหะทุ่งสองห้องวิทยา2", "DESC_": "โรงเรียน", "REMARK": null }, "geometry": { "type": "Point", "coordinates": [ 100.579236404632454, 13.902391534960353 ] } },
{ "type": "Feature", "properties": { "CULTURE_": 65157.0, "CULTURE_ID": 65157.0, "CUL_PTYPE": 6100.0, "CUL_PNAME": "โรงเรียนบ้านหนองระแหง", "DESC_": "โรงเรียน", "REMARK": null }, "geometry": { "type": "Point", "coordinates": [ 100.691278252983778, 13.901625831060247 ] } },
{ "type": "Feature", "properties": { "CULTURE_": 65158.0, "CULTURE_ID": 65158.0, "CUL_PTYPE": 6100.0, "CUL_PNAME": "โรงเรียนศิริวัฒน์วิทยา", "DESC_": "โรงเรียน", "REMARK": null }, "geometry": { "type": "Point", "coordinates": [ 100.644230975206668, 13.90113545548731 ] } },
{ "type": "Feature", "properties": { "CULTURE_": 65160.0, "CULTURE_ID": 65160.0, "CUL_PTYPE": 6100.0, "CUL_PNAME": "โรงเรียนเคหะทุ่งสองห้องวิทยา1", "DESC_": "โรงเรียน", "REMARK": null }, "geometry": { "type": "Point", "coordinates": [ 100.584272184978616, 13.900585419141859 ] } },
{ "type": "Feature", "properties": { "CULTURE_": 65165.0, "CULTURE_ID": 65165.0, "CUL_PTYPE": 6100.0, "CUL_PNAME": "โรงเรียนสยามบริหารธุรกิจ", "DESC_": "โรงเรียน", "REMARK": null }, "geometry": { "type": "Point", "coordinates": [ 100.617757252362281, 13.894174443454267 ] } },
{ "type": "Feature", "properties": { "CULTURE_": 65168.0, "CULTURE_ID": 65168.0, "CUL_PTYPE": 6100.0, "CUL_PNAME": "โรงเรียนนิเวศน์วารินทร์", "DESC_": "โรงเรียน", "REMARK": null }, "geometry": { "type": "Point", "coordinates": [ 100.608365395883695, 13.888931083659205 ] } },
{ "type": "Feature", "properties": { "CULTURE_": 65170.0, "CULTURE_ID": 65170.0, "CUL_PTYPE": 6100.0, "CUL_PNAME": "โรงเรียนวัดแป้นทอง", "DESC_": "โรงเรียน", "REMARK": null }, "geometry": { "type": "Point", "coordinates": [ 100.708887696339858, 13.885494913322409 ] } },
{ "type": "Feature", "properties": { "CULTURE_": 65171.0, "CULTURE_ID": 65171.0, "CUL_PTYPE": 6100.0, "CUL_PNAME": "โรงเรียนวัดราษฎร์นิยมธรรม", "DESC_": "โรงเรียน", "REMARK": null }, "geometry": { "type": "Point", "coordinates": [ 100.624829929565706, 13.885769103861705 ] } },
{ "type": "Feature", "properties": { "CULTURE_": 65172.0, "CULTURE_ID": 65172.0, "CUL_PTYPE": 6100.0, "CUL_PNAME": "โรงเรียนพระร่วงประสิทธิ์", "DESC_": "โรงเรียน", "REMARK": null }, "geometry": { "type": "Point", "coordinates": [ 100.662189092771229, 13.885061333524227 ] } },
{ "type": "Feature", "properties": { "CULTURE_": 65173.0, "CULTURE_ID": 65173.0, "CUL_PTYPE": 6100.0, "CUL_PNAME": "โรงเรียนทุ่งสองห้อง", "DESC_": "โรงเรียน", "REMARK": null }, "geometry": { "type": "Point", "coordinates": [ 100.560668286006944, 13.88504247413446 ] } },
{ "type": "Feature", "properties": { "CULTURE_": 65174.0, "CULTURE_ID": 65174.0, "CUL_PTYPE": 6100.0, "CUL_PNAME": "โรงเรียนเจริญผลวิทยา", "DESC_": "โรงเรียน", "REMARK": null }, "geometry": { "type": "Point", "coordinates": [ 100.586655377306357, 13.882713278821205 ] } },
{ "type": "Feature", "properties": { "CULTURE_": 65175.0, "CULTURE_ID": 65175.0, "CUL_PTYPE": 6100.0, "CUL_PNAME": "โรงเรียนเทคนิครัตนโกสินทร์", "DESC_": "โรงเรียน", "REMARK": null }, "geometry": { "type": "Point", "coordinates": [ 100.58310213215357, 13.881699920160889 ] } },
{ "type": "Feature", "properties": { "CULTURE_": 65176.0, "CULTURE_ID": 65176.0, "CUL_PTYPE": 6100.0, "CUL_PNAME": "โรงเรียนประสาทวิทยา", "DESC_": "โรงเรียน", "REMARK": null }, "geometry": { "type": "Point", "coordinates": [ 100.599669350375763, 13.88122162999813 ] } },
{ "type": "Feature", "properties": { "CULTURE_": 65179.0, "CULTURE_ID": 65179.0, "CUL_PTYPE": 6100.0, "CUL_PNAME": "โรงเรียนวัดสุทธิสะอาด", "DESC_": "โรงเรียน", "REMARK": null }, "geometry": { "type": "Point", "coordinates": [ 100.732364553717588, 13.877664490198228 ] } },
{ "type": "Feature", "properties": { "CULTURE_": 65180.0, "CULTURE_ID": 65180.0, "CUL_PTYPE": 6100.0, "CUL_PNAME": "สถาบันราชภัฎพระนคร", "DESC_": "โรงเรียน", "REMARK": null }, "geometry": { "type": "Point", "coordinates": [ 100.590628022636622, 13.876708536157956 ] } },
{ "type": "Feature", "properties": { "CULTURE_": 65181.0, "CULTURE_ID": 65181.0, "CUL_PTYPE": 6100.0, "CUL_PNAME": "โรงเรียนไผทอุดมศึกษา", "DESC_": "โรงเรียน", "REMARK": null }, "geometry": { "type": "Point", "coordinates": [ 100.578877617867448, 13.876563957986615 ] } },
{ "type": "Feature", "properties": { "CULTURE_": 65185.0, "CULTURE_ID": 65185.0, "CUL_PTYPE": 6100.0, "CUL_PNAME": "โรงเรียนวัดพระยาสุเรนทร์", "DESC_": "โรงเรียน", "REMARK": null }, "geometry": { "type": "Point", "coordinates": [ 100.686914252254184, 13.873754667000815 ] } },
{ "type": "Feature", "properties": { "CULTURE_": 65186.0, "CULTURE_ID": 65186.0, "CUL_PTYPE": 6100.0, "CUL_PNAME": "มหาวิทยาลัยเกริก", "DESC_": "โรงเรียน", "REMARK": null }, "geometry": { "type": "Point", "coordinates": [ 100.60009814532566, 13.873384152971234 ] } },
{ "type": "Feature", "properties": { "CULTURE_": 65187.0, "CULTURE_ID": 65187.0, "CUL_PTYPE": 6100.0, "CUL_PNAME": "โรงเรียนอนุบาลเข็มทอง", "DESC_": "โรงเรียน", "REMARK": null }, "geometry": { "type": "Point", "coordinates": [ 100.553428234517156, 13.872600056426394 ] } },
{ "type": "Feature", "properties": { "CULTURE_": 65188.0, "CULTURE_ID": 65188.0, "CUL_PTYPE": 6100.0, "CUL_PNAME": "โรงเรียนดรุโนทยาน", "DESC_": "โรงเรียน", "REMARK": null }, "geometry": { "type": "Point", "coordinates": [ 100.551267085016832, 13.872415466211946 ] } },
{ "type": "Feature", "properties": { "CULTURE_": 65189.0, "CULTURE_ID": 65189.0, "CUL_PTYPE": 6100.0, "CUL_PNAME": "โรงเรียนอุทัยวิทยา", "DESC_": "โรงเรียน", "REMARK": null }, "geometry": { "type": "Point", "coordinates": [ 100.591002290700501, 13.87206289181694 ] } },
{ "type": "Feature", "properties": { "CULTURE_": 65190.0, "CULTURE_ID": 65190.0, "CUL_PTYPE": 6100.0, "CUL_PNAME": "โรงเรียนรัตนโกสินทร์สมโภชบางเขน", "DESC_": "โรงเรียน", "REMARK": null }, "geometry": { "type": "Point", "coordinates": [ 100.644798729825027, 13.870862177206337 ] } },
{ "type": "Feature", "properties": { "CULTURE_": 65191.0, "CULTURE_ID": 65191.0, "CUL_PTYPE": 6100.0, "CUL_PNAME": "โรงเรียนปราโมชวิทยารามอินทรา", "DESC_": "โรงเรียน", "REMARK": null }, "geometry": { "type": "Point", "coordinates": [ 100.606431650818109, 13.869512117905357 ] } },
{ "type": "Feature", "properties": { "CULTURE_": 65194.0, "CULTURE_ID": 65194.0, "CUL_PTYPE": 6100.0, "CUL_PNAME": "โรงเรียนเอี่ยมพานิชวิทยา", "DESC_": "โรงเรียน", "REMARK": null }, "geometry": { "type": "Point", "coordinates": [ 100.611653126410303, 13.868115874537414 ] } },
{ "type": "Feature", "properties": { "CULTURE_": 65197.0, "CULTURE_ID": 65197.0, "CUL_PTYPE": 6100.0, "CUL_PNAME": "โรงเรียนไทยบริหารธุรกิจและพณิชยการ", "DESC_": "โรงเรียน", "REMARK": null }, "geometry": { "type": "Point", "coordinates": [ 100.588986994050771, 13.864047486163727 ] } },
{ "type": "Feature", "properties": { "CULTURE_": 65198.0, "CULTURE_ID": 65198.0, "CUL_PTYPE": 6100.0, "CUL_PNAME": "วิทยาลัยบริหารและธุรกิจและการท่องเที่ยวกรุงเทพฯ", "DESC_": "โรงเรียน", "REMARK": null }, "geometry": { "type": "Point", "coordinates": [ 100.708561460551991, 13.862904990470664 ] } },
{ "type": "Feature", "properties": { "CULTURE_": 65199.0, "CULTURE_ID": 65199.0, "CUL_PTYPE": 6100.0, "CUL_PNAME": "โรงเรียนกลางคลองสอง", "DESC_": "โรงเรียน", "REMARK": null }, "geometry": { "type": "Point", "coordinates": [ 100.699275347283304, 13.861716309090099 ] } },
{ "type": "Feature", "properties": { "CULTURE_": 65200.0, "CULTURE_ID": 65200.0, "CUL_PTYPE": 6100.0, "CUL_PNAME": "โรงเรียนปราโมชวิทยาทาน", "DESC_": "โรงเรียน", "REMARK": null }, "geometry": { "type": "Point", "coordinates": [ 100.58773840268654, 13.861765794970495 ] } },
{ "type": "Feature", "properties": { "CULTURE_": 65201.0, "CULTURE_ID": 65201.0, "CUL_PTYPE": 6100.0, "CUL_PNAME": "โรงเรียนอนุบาลฉัตรเฉลิม", "DESC_": "โรงเรียน", "REMARK": null }, "geometry": { "type": "Point", "coordinates": [ 100.547037284808724, 13.861730904367942 ] } },
{ "type": "Feature", "properties": { "CULTURE_": 65202.0, "CULTURE_ID": 65202.0, "CUL_PTYPE": 6100.0, "CUL_PNAME": "โรงเรียนบางเขน", "DESC_": "โรงเรียน", "REMARK": null }, "geometry": { "type": "Point", "coordinates": [ 100.56748932509521, 13.861222856442824 ] } },
{ "type": "Feature", "properties": { "CULTURE_": 65204.0, "CULTURE_ID": 65204.0, "CUL_PTYPE": 6100.0, "CUL_PNAME": "โรงเรียนสารินันทน์ศึกษา", "DESC_": "โรงเรียน", "REMARK": null }, "geometry": { "type": "Point", "coordinates": [ 100.569404679283465, 13.860177920084334 ] } },
{ "type": "Feature", "properties": { "CULTURE_": 65207.0, "CULTURE_ID": 65207.0, "CUL_PTYPE": 6100.0, "CUL_PNAME": "โรงเรียนบางบัว", "DESC_": "โรงเรียน", "REMARK": null }, "geometry": { "type": "Point", "coordinates": [ 100.584963004370806, 13.856823300304544 ] } },
{ "type": "Feature", "properties": { "CULTURE_": 65209.0, "CULTURE_ID": 65209.0, "CUL_PTYPE": 6100.0, "CUL_PNAME": "โรงเรียนชาลีสมุทร", "DESC_": "โรงเรียน", "REMARK": null }, "geometry": { "type": "Point", "coordinates": [ 100.548303730850094, 13.856361986178127 ] } },
{ "type": "Feature", "properties": { "CULTURE_": 65210.0, "CULTURE_ID": 65210.0, "CUL_PTYPE": 6100.0, "CUL_PNAME": "โรงเรียนวัดคู้บอน", "DESC_": "โรงเรียน", "REMARK": null }, "geometry": { "type": "Point", "coordinates": [ 100.673024276575987, 13.854325435410241 ] } },
{ "type": "Feature", "properties": { "CULTURE_": 65211.0, "CULTURE_ID": 65211.0, "CUL_PTYPE": 6100.0, "CUL_PNAME": "มหาวิทยาลัยศรีปทุม", "DESC_": "โรงเรียน", "REMARK": null }, "geometry": { "type": "Point", "coordinates": [ 100.585486746742205, 13.853871597523126 ] } },
{ "type": "Feature", "properties": { "CULTURE_": 65212.0, "CULTURE_ID": 65212.0, "CUL_PTYPE": 6100.0, "CUL_PNAME": "โรงเรียนวัดเทวสุนทร", "DESC_": "โรงเรียน", "REMARK": null }, "geometry": { "type": "Point", "coordinates": [ 100.562119869457888, 13.853572810129691 ] } },
{ "type": "Feature", "properties": { "CULTURE_": 65215.0, "CULTURE_ID": 65215.0, "CUL_PTYPE": 6100.0, "CUL_PNAME": "โรงเรียนสาธิตแห่งมหาวิทยาลัยเกษตรศาสตร์", "DESC_": "โรงเรียน", "REMARK": null }, "geometry": { "type": "Point", "coordinates": [ 100.568559940892641, 13.850710510814025 ] } },
{ "type": "Feature", "properties": { "CULTURE_": 65216.0, "CULTURE_ID": 65216.0, "CUL_PTYPE": 6100.0, "CUL_PNAME": "โรงเรียนวัดไตรรัตนาราม", "DESC_": "โรงเรียน", "REMARK": null }, "geometry": { "type": "Point", "coordinates": [ 100.618520704563437, 13.849625893589236 ] } },
{ "type": "Feature", "properties": { "CULTURE_": 65217.0, "CULTURE_ID": 65217.0, "CUL_PTYPE": 6100.0, "CUL_PNAME": "โรงเรียนจินดาบำรุง", "DESC_": "โรงเรียน", "REMARK": null }, "geometry": { "type": "Point", "coordinates": [ 100.659729514612081, 13.848295010154082 ] } },
{ "type": "Feature", "properties": { "CULTURE_": 65218.0, "CULTURE_ID": 65218.0, "CUL_PTYPE": 6100.0, "CUL_PNAME": "มหาวิทยาลัยเกษตรศาสตร์", "DESC_": "โรงเรียน", "REMARK": null }, "geometry": { "type": "Point", "coordinates": [ 100.568164332771914, 13.84881982517612 ] } },
{ "type": "Feature", "properties": { "CULTURE_": 65219.0, "CULTURE_ID": 65219.0, "CUL_PTYPE": 6100.0, "CUL_PNAME": "โรงเรียนลาดปลาเค้า", "DESC_": "โรงเรียน", "REMARK": null }, "geometry": { "type": "Point", "coordinates": [ 100.604037064967272, 13.847592278166378 ] } },
{ "type": "Feature", "properties": { "CULTURE_": 65220.0, "CULTURE_ID": 65220.0, "CUL_PTYPE": 6100.0, "CUL_PNAME": "โรงเรียนสายอักษร", "DESC_": "โรงเรียน", "REMARK": null }, "geometry": { "type": "Point", "coordinates": [ 100.647782439167386, 13.845420722835014 ] } },
{ "type": "Feature", "properties": { "CULTURE_": 65221.0, "CULTURE_ID": 65221.0, "CUL_PTYPE": 6100.0, "CUL_PNAME": "โรงเรียนลาดปลาเค้าพิทยยาคม", "DESC_": "โรงเรียน", "REMARK": null }, "geometry": { "type": "Point", "coordinates": [ 100.604964774241154, 13.84551341640757 ] } },
{ "type": "Feature", "properties": { "CULTURE_": 65222.0, "CULTURE_ID": 65222.0, "CUL_PTYPE": 6100.0, "CUL_PNAME": "โรงเรียนประชาราษฎร์อุปถัมภ์วิทยา", "DESC_": "โรงเรียน", "REMARK": null }, "geometry": { "type": "Point", "coordinates": [ 100.695706288477211, 13.843739314077906 ] } },
{ "type": "Feature", "properties": { "CULTURE_": 65224.0, "CULTURE_ID": 65224.0, "CUL_PTYPE": 6100.0, "CUL_PNAME": "โรงเรียนอนุบาลปรางทิพย์", "DESC_": "โรงเรียน", "REMARK": null }, "geometry": { "type": "Point", "coordinates": [ 100.562070674126133, 13.843916936887256 ] } },
{ "type": "Feature", "properties": { "CULTURE_": 65225.0, "CULTURE_ID": 65225.0, "CUL_PTYPE": 6100.0, "CUL_PNAME": "โรงเรียนอนุบาลพุทธรักษา", "DESC_": "โรงเรียน", "REMARK": null }, "geometry": { "type": "Point", "coordinates": [ 100.547369731562526, 13.843688450375129 ] } },
{ "type": "Feature", "properties": { "CULTURE_": 65226.0, "CULTURE_ID": 65226.0, "CUL_PTYPE": 6100.0, "CUL_PNAME": "โรงเรียนสุเหร่าคลองหนึ่ง", "DESC_": "โรงเรียน", "REMARK": null }, "geometry": { "type": "Point", "coordinates": [ 100.710410341697767, 13.842409947219629 ] } },
{ "type": "Feature", "properties": { "CULTURE_": 65228.0, "CULTURE_ID": 65228.0, "CUL_PTYPE": 6100.0, "CUL_PNAME": "โรงเรียนอิสลามศาสนวิทยา", "DESC_": "โรงเรียน", "REMARK": null }, "geometry": { "type": "Point", "coordinates": [ 100.748635222492538, 13.841889449304889 ] } },
{ "type": "Feature", "properties": { "CULTURE_": 65230.0, "CULTURE_ID": 65230.0, "CUL_PTYPE": 6100.0, "CUL_PNAME": "โรงเรียนเทคโนโลยีประชานิเวศน์", "DESC_": "โรงเรียน", "REMARK": null }, "geometry": { "type": "Point", "coordinates": [ 100.545512623934556, 13.843116485288656 ] } },
{ "type": "Feature", "properties": { "CULTURE_": 65231.0, "CULTURE_ID": 65231.0, "CUL_PTYPE": 6100.0, "CUL_PNAME": "โรงเรียนสมิตสันต์", "DESC_": "โรงเรียน", "REMARK": null }, "geometry": { "type": "Point", "coordinates": [ 100.597383977706556, 13.842723931160272 ] } },
{ "type": "Feature", "properties": { "CULTURE_": 65232.0, "CULTURE_ID": 65232.0, "CUL_PTYPE": 6100.0, "CUL_PNAME": "โรงเรียนวัดเสมียนนารี", "DESC_": "โรงเรียน", "REMARK": null }, "geometry": { "type": "Point", "coordinates": [ 100.556183326078511, 13.840751618466996 ] } },
{ "type": "Feature", "properties": { "CULTURE_": 65233.0, "CULTURE_ID": 65233.0, "CUL_PTYPE": 6100.0, "CUL_PNAME": "โรงเรียนวัดนวลจันทร์", "DESC_": "โรงเรียน", "REMARK": null }, "geometry": { "type": "Point", "coordinates": [ 100.639576590140479, 13.837633743492823 ] } },
{ "type": "Feature", "properties": { "CULTURE_": 65234.0, "CULTURE_ID": 65234.0, "CUL_PTYPE": 6100.0, "CUL_PNAME": "โรงเรียนกัลยวิทย์", "DESC_": "โรงเรียน", "REMARK": null }, "geometry": { "type": "Point", "coordinates": [ 100.593772340927941, 13.837546755396669 ] } },
{ "type": "Feature", "properties": { "CULTURE_": 65235.0, "CULTURE_ID": 65235.0, "CUL_PTYPE": 6100.0, "CUL_PNAME": "โรงเรียนอนุบาลไสวตาแตง", "DESC_": "โรงเรียน", "REMARK": null }, "geometry": { "type": "Point", "coordinates": [ 100.582779905563655, 13.837531936189569 ] } },
{ "type": "Feature", "properties": { "CULTURE_": 65236.0, "CULTURE_ID": 65236.0, "CUL_PTYPE": 6100.0, "CUL_PNAME": "เทคโนโลยีดุสิต", "DESC_": "โรงเรียน", "REMARK": null }, "geometry": { "type": "Point", "coordinates": [ 100.675315008765466, 13.836277134206307 ] } },
{ "type": "Feature", "properties": { "CULTURE_": 65239.0, "CULTURE_ID": 65239.0, "CUL_PTYPE": 6100.0, "CUL_PNAME": "โรงเรียนอรรถมิตร", "DESC_": "โรงเรียน", "REMARK": null }, "geometry": { "type": "Point", "coordinates": [ 100.568616592826388, 13.83403186415018 ] } },
{ "type": "Feature", "properties": { "CULTURE_": 65240.0, "CULTURE_ID": 65240.0, "CUL_PTYPE": 6100.0, "CUL_PNAME": "โรงเรียนวัดทองสุทธาราม", "DESC_": "โรงเรียน", "REMARK": null }, "geometry": { "type": "Point", "coordinates": [ 100.54063125466142, 13.833356243643172 ] } },
{ "type": "Feature", "properties": { "CULTURE_": 65241.0, "CULTURE_ID": 65241.0, "CUL_PTYPE": 6100.0, "CUL_PNAME": "โรงเรียนทับทอง", "DESC_": "โรงเรียน", "REMARK": null }, "geometry": { "type": "Point", "coordinates": [ 100.575574018846424, 13.833033157081301 ] } },
{ "type": "Feature", "properties": { "CULTURE_": 65242.0, "CULTURE_ID": 65242.0, "CUL_PTYPE": 6100.0, "CUL_PNAME": "โรงเรียนสมิทธิโชติ", "DESC_": "โรงเรียน", "REMARK": null }, "geometry": { "type": "Point", "coordinates": [ 100.587539741145633, 13.832503249708372 ] } },
{ "type": "Feature", "properties": { "CULTURE_": 65243.0, "CULTURE_ID": 65243.0, "CUL_PTYPE": 6100.0, "CUL_PNAME": "โรงเรียนถนอมรัก", "DESC_": "โรงเรียน", "REMARK": null }, "geometry": { "type": "Point", "coordinates": [ 100.572358381487419, 13.83245141805633 ] } },
{ "type": "Feature", "properties": { "CULTURE_": 65244.0, "CULTURE_ID": 65244.0, "CUL_PTYPE": 6100.0, "CUL_PNAME": "โรงเรียนเทพวิทยา", "DESC_": "โรงเรียน", "REMARK": null }, "geometry": { "type": "Point", "coordinates": [ 100.591125340843476, 13.83230789510794 ] } },
{ "type": "Feature", "properties": { "CULTURE_": 65245.0, "CULTURE_ID": 65245.0, "CUL_PTYPE": 6100.0, "CUL_PNAME": "โรงเรียนสันติสุขวิทยา", "DESC_": "โรงเรียน", "REMARK": null }, "geometry": { "type": "Point", "coordinates": [ 100.595328554882428, 13.832168336119567 ] } },
{ "type": "Feature", "properties": { "CULTURE_": 65246.0, "CULTURE_ID": 65246.0, "CUL_PTYPE": 6100.0, "CUL_PNAME": "โรงเรียนเสนานิคม", "DESC_": "โรงเรียน", "REMARK": null }, "geometry": { "type": "Point", "coordinates": [ 100.588600936735929, 13.832024946013238 ] } },
{ "type": "Feature", "properties": { "CULTURE_": 65247.0, "CULTURE_ID": 65247.0, "CUL_PTYPE": 6100.0, "CUL_PNAME": "โรงเรียนไทยวิจิตรศิลป", "DESC_": "โรงเรียน", "REMARK": null }, "geometry": { "type": "Point", "coordinates": [ 100.567786039561994, 13.831223530165731 ] } },
{ "type": "Feature", "properties": { "CULTURE_": 65248.0, "CULTURE_ID": 65248.0, "CUL_PTYPE": 6100.0, "CUL_PNAME": "โรงเรียนช่างฝีมือทหาร", "DESC_": "โรงเรียน", "REMARK": null }, "geometry": { "type": "Point", "coordinates": [ 100.575641907145297, 13.830604464182107 ] } },
{ "type": "Feature", "properties": { "CULTURE_": 65249.0, "CULTURE_ID": 65249.0, "CUL_PTYPE": 6100.0, "CUL_PNAME": "โรงเรียนสุดใจวิทยา", "DESC_": "โรงเรียน", "REMARK": null }, "geometry": { "type": "Point", "coordinates": [ 100.719765894627642, 13.828143258147055 ] } },
{ "type": "Feature", "properties": { "CULTURE_": 65250.0, "CULTURE_ID": 65250.0, "CUL_PTYPE": 6100.0, "CUL_PNAME": "โรงเรียนนีรชาศึกษา", "DESC_": "โรงเรียน", "REMARK": null }, "geometry": { "type": "Point", "coordinates": [ 100.696520820459583, 13.828278978509456 ] } },
{ "type": "Feature", "properties": { "CULTURE_": 65251.0, "CULTURE_ID": 65251.0, "CUL_PTYPE": 6100.0, "CUL_PNAME": "โรงเรียนวัดเลียบราษฎร์บำรุง", "DESC_": "โรงเรียน", "REMARK": null }, "geometry": { "type": "Point", "coordinates": [ 100.521281429489548, 13.828732697423078 ] } },
{ "type": "Feature", "properties": { "CULTURE_": 65252.0, "CULTURE_ID": 65252.0, "CUL_PTYPE": 6100.0, "CUL_PNAME": "โรงเรียนวรบุตรวิทยา", "DESC_": "โรงเรียน", "REMARK": null }, "geometry": { "type": "Point", "coordinates": [ 100.569908381840321, 13.827962294074029 ] } },
{ "type": "Feature", "properties": { "CULTURE_": 65253.0, "CULTURE_ID": 65253.0, "CUL_PTYPE": 6100.0, "CUL_PNAME": "โรงเรียนมีนบุรีโปลีเทคนิค", "DESC_": "โรงเรียน", "REMARK": null }, "geometry": { "type": "Point", "coordinates": [ 100.727029509087316, 13.825230130887478 ] } },
{ "type": "Feature", "properties": { "CULTURE_": 65256.0, "CULTURE_ID": 65256.0, "CUL_PTYPE": 6100.0, "CUL_PNAME": "โรงเรียนอนุบาลพิริยะโยธิน", "DESC_": "โรงเรียน", "REMARK": null }, "geometry": { "type": "Point", "coordinates": [ 100.535375954100218, 13.82419235589547 ] } },
{ "type": "Feature", "properties": { "CULTURE_": 65257.0, "CULTURE_ID": 65257.0, "CUL_PTYPE": 6100.0, "CUL_PNAME": "โรงเรียนพณิชยการธัชรินทร์", "DESC_": "โรงเรียน", "REMARK": null }, "geometry": { "type": "Point", "coordinates": [ 100.555715935341496, 13.82342814536981 ] } },
{ "type": "Feature", "properties": { "CULTURE_": 65258.0, "CULTURE_ID": 65258.0, "CUL_PTYPE": 6100.0, "CUL_PNAME": "โรงเรียนเพชรถนอม", "DESC_": "โรงเรียน", "REMARK": null }, "geometry": { "type": "Point", "coordinates": [ 100.615701838897991, 13.822916955879901 ] } },
{ "type": "Feature", "properties": { "CULTURE_": 65259.0, "CULTURE_ID": 65259.0, "CUL_PTYPE": 6100.0, "CUL_PNAME": "โรงเรียนสตรีวรนารถบางเขน", "DESC_": "โรงเรียน", "REMARK": null }, "geometry": { "type": "Point", "coordinates": [ 100.566587031893661, 13.822555300595127 ] } },
{ "type": "Feature", "properties": { "CULTURE_": 65260.0, "CULTURE_ID": 65260.0, "CUL_PTYPE": 6100.0, "CUL_PNAME": "โรงเรียนอนุบาลณฤดี", "DESC_": "โรงเรียน", "REMARK": null }, "geometry": { "type": "Point", "coordinates": [ 100.656889937654853, 13.821475697131687 ] } },
{ "type": "Feature", "properties": { "CULTURE_": 65261.0, "CULTURE_ID": 65261.0, "CUL_PTYPE": 6100.0, "CUL_PNAME": "โรงเรียนสมศรีรื่นศึกษา", "DESC_": "โรงเรียน", "REMARK": null }, "geometry": { "type": "Point", "coordinates": [ 100.52059490173356, 13.822070146516609 ] } },
{ "type": "Feature", "properties": { "CULTURE_": 65262.0, "CULTURE_ID": 65262.0, "CUL_PTYPE": 6100.0, "CUL_PNAME": "โรงเรียนสตรีนนทบุรี", "DESC_": "โรงเรียน", "REMARK": null }, "geometry": { "type": "Point", "coordinates": [ 100.516578851657897, 13.821891555351037 ] } },
{ "type": "Feature", "properties": { "CULTURE_": 65263.0, "CULTURE_ID": 65263.0, "CUL_PTYPE": 6100.0, "CUL_PNAME": "โรงเรียนพณิชยการสันติราษฎร์", "DESC_": "โรงเรียน", "REMARK": null }, "geometry": { "type": "Point", "coordinates": [ 100.5690778963383, 13.819445116534011 ] } },
{ "type": "Feature", "properties": { "CULTURE_": 65264.0, "CULTURE_ID": 65264.0, "CUL_PTYPE": 6100.0, "CUL_PNAME": "สถาบันราชภัฎจันทร์เกษม", "DESC_": "โรงเรียน", "REMARK": null }, "geometry": { "type": "Point", "coordinates": [ 100.576693736330924, 13.819101718819974 ] } },
{ "type": "Feature", "properties": { "CULTURE_": 65265.0, "CULTURE_ID": 65265.0, "CUL_PTYPE": 6100.0, "CUL_PNAME": "โรงเรียนกรุงธนรัตนาลัย", "DESC_": "โรงเรียน", "REMARK": null }, "geometry": { "type": "Point", "coordinates": [ 100.519878306721878, 13.819514351526243 ] } },
{ "type": "Feature", "properties": { "CULTURE_": 65266.0, "CULTURE_ID": 65266.0, "CUL_PTYPE": 6100.0, "CUL_PNAME": "สถาบันเทคโนโลยีพระจอมเกล้าพระนครเหนือ", "DESC_": "โรงเรียน", "REMARK": null }, "geometry": { "type": "Point", "coordinates": [ 100.514059945167176, 13.819251939738038 ] } },
{ "type": "Feature", "properties": { "CULTURE_": 65267.0, "CULTURE_ID": 65267.0, "CUL_PTYPE": 6100.0, "CUL_PNAME": "โรงเรียนอนุบาลฤทธินี", "DESC_": "โรงเรียน", "REMARK": null }, "geometry": { "type": "Point", "coordinates": [ 100.602824628891909, 13.818602190172067 ] } },
{ "type": "Feature", "properties": { "CULTURE_": 65268.0, "CULTURE_ID": 65268.0, "CUL_PTYPE": 6100.0, "CUL_PNAME": "โรงเรียนอนุบาลอาภาภิรมย์", "DESC_": "โรงเรียน", "REMARK": null }, "geometry": { "type": "Point", "coordinates": [ 100.579444072794658, 13.818686431192504 ] } },
{ "type": "Feature", "properties": { "CULTURE_": 65269.0, "CULTURE_ID": 65269.0, "CUL_PTYPE": 6100.0, "CUL_PNAME": "โรงเรียนคลองลำเจียก", "DESC_": "โรงเรียน", "REMARK": null }, "geometry": { "type": "Point", "coordinates": [ 100.63422675162181, 13.818312777947821 ] } },
{ "type": "Feature", "properties": { "CULTURE_": 65270.0, "CULTURE_ID": 65270.0, "CUL_PTYPE": 6100.0, "CUL_PNAME": "โรงเรียนพณิชยการมีนบุรี", "DESC_": "โรงเรียน", "REMARK": null }, "geometry": { "type": "Point", "coordinates": [ 100.72208516449146, 13.817607224711336 ] } },
{ "type": "Feature", "properties": { "CULTURE_": 65271.0, "CULTURE_ID": 65271.0, "CUL_PTYPE": 6100.0, "CUL_PNAME": "โรงเรียนบุญฤดี", "DESC_": "โรงเรียน", "REMARK": null }, "geometry": { "type": "Point", "coordinates": [ 100.590546205865166, 13.81806847160866 ] } },
{ "type": "Feature", "properties": { "CULTURE_": 65272.0, "CULTURE_ID": 65272.0, "CUL_PTYPE": 6100.0, "CUL_PNAME": "โรงเรียนประศรัทธาราม", "DESC_": "โรงเรียน", "REMARK": null }, "geometry": { "type": "Point", "coordinates": [ 100.519940229715857, 13.818227016632777 ] } },
{ "type": "Feature", "properties": { "CULTURE_": 65273.0, "CULTURE_ID": 65273.0, "CUL_PTYPE": 6100.0, "CUL_PNAME": "สถาบันเทคโนโลยีราชมงคลวิทยาเขตพระนครเหนือ", "DESC_": "โรงเรียน", "REMARK": null }, "geometry": { "type": "Point", "coordinates": [ 100.51253191852399, 13.819238574252282 ] } },
{ "type": "Feature", "properties": { "CULTURE_": 65274.0, "CULTURE_ID": 65274.0, "CUL_PTYPE": 6100.0, "CUL_PNAME": "โรงเรียนเบญจมินทร์", "DESC_": "โรงเรียน", "REMARK": null }, "geometry": { "type": "Point", "coordinates": [ 100.654948905487203, 13.817040259555117 ] } },
{ "type": "Feature", "properties": { "CULTURE_": 65275.0, "CULTURE_ID": 65275.0, "CUL_PTYPE": 6100.0, "CUL_PNAME": "โรงเรียนเทคนิควิมลบริหารธุรกิจ", "DESC_": "โรงเรียน", "REMARK": null }, "geometry": { "type": "Point", "coordinates": [ 100.538292757659576, 13.817772966410299 ] } },
{ "type": "Feature", "properties": { "CULTURE_": 65276.0, "CULTURE_ID": 65276.0, "CUL_PTYPE": 6100.0, "CUL_PNAME": "โรงเรียนศิลาจารพิพัฒน์", "DESC_": "โรงเรียน", "REMARK": null }, "geometry": { "type": "Point", "coordinates": [ 100.528797101963733, 13.817024117631526 ] } },
{ "type": "Feature", "properties": { "CULTURE_": 65277.0, "CULTURE_ID": 65277.0, "CUL_PTYPE": 6100.0, "CUL_PNAME": "วิทยาลัยรัตนบัณฑิต", "DESC_": "โรงเรียน", "REMARK": null }, "geometry": { "type": "Point", "coordinates": [ 100.651505377970992, 13.815177784453175 ] } },
{ "type": "Feature", "properties": { "CULTURE_": 65279.0, "CULTURE_ID": 65279.0, "CUL_PTYPE": 6100.0, "CUL_PNAME": "โรงเรียนวีระพิทยา", "DESC_": "โรงเรียน", "REMARK": null }, "geometry": { "type": "Point", "coordinates": [ 100.523766875718024, 13.815259419792 ] } },
{ "type": "Feature", "properties": { "CULTURE_": 65281.0, "CULTURE_ID": 65281.0, "CUL_PTYPE": 6100.0, "CUL_PNAME": "โรงเรียนสุขเนตร", "DESC_": "โรงเรียน", "REMARK": null }, "geometry": { "type": "Point", "coordinates": [ 100.724666367690006, 13.8135559932505 ] } },
{ "type": "Feature", "properties": { "CULTURE_": 65282.0, "CULTURE_ID": 65282.0, "CUL_PTYPE": 6100.0, "CUL_PNAME": "โรงเรียนอนุบาลสังสิทธิ", "DESC_": "โรงเรียน", "REMARK": null }, "geometry": { "type": "Point", "coordinates": [ 100.596684434798789, 13.8142571709585 ] } },
{ "type": "Feature", "properties": { "CULTURE_": 65283.0, "CULTURE_ID": 65283.0, "CUL_PTYPE": 6100.0, "CUL_PNAME": "วิทยาลัยเทคนิคมีนบุรี", "DESC_": "โรงเรียน", "REMARK": null }, "geometry": { "type": "Point", "coordinates": [ 100.722273010318759, 13.812951734675414 ] } },
{ "type": "Feature", "properties": { "CULTURE_": 65284.0, "CULTURE_ID": 65284.0, "CUL_PTYPE": 6100.0, "CUL_PNAME": "โรงเรียนวัดวิมุตยาราม", "DESC_": "โรงเรียน", "REMARK": null }, "geometry": { "type": "Point", "coordinates": [ 100.517567730556948, 13.813427003311418 ] } },
{ "type": "Feature", "properties": { "CULTURE_": 65285.0, "CULTURE_ID": 65285.0, "CUL_PTYPE": 6100.0, "CUL_PNAME": "มหาวิทยาลัยเซนต์จอห์น", "DESC_": "โรงเรียน", "REMARK": null }, "geometry": { "type": "Point", "coordinates": [ 100.561065298525051, 13.812578067610305 ] } },
{ "type": "Feature", "properties": { "CULTURE_": 65286.0, "CULTURE_ID": 65286.0, "CUL_PTYPE": 6100.0, "CUL_PNAME": "โรงเรียนเทคโนโลยีไทยสุริยะ", "DESC_": "โรงเรียน", "REMARK": null }, "geometry": { "type": "Point", "coordinates": [ 100.690454981007775, 13.811552895278929 ] } },
{ "type": "Feature", "properties": { "CULTURE_": 65287.0, "CULTURE_ID": 65287.0, "CUL_PTYPE": 6100.0, "CUL_PNAME": "โรงเรียนมีนบุรีศึกษา", "DESC_": "โรงเรียน", "REMARK": null }, "geometry": { "type": "Point", "coordinates": [ 100.72472412734146, 13.81058499985896 ] } },
{ "type": "Feature", "properties": { "CULTURE_": 65288.0, "CULTURE_ID": 65288.0, "CUL_PTYPE": 6100.0, "CUL_PNAME": "โรงเรียนฝึกอาชีพกรุงเทพมหานคร", "DESC_": "โรงเรียน", "REMARK": null }, "geometry": { "type": "Point", "coordinates": [ 100.606552529291733, 13.811274421548442 ] } },
{ "type": "Feature", "properties": { "CULTURE_": 65289.0, "CULTURE_ID": 65289.0, "CUL_PTYPE": 6100.0, "CUL_PNAME": "โรงเรียนเทคนิคกรุงเทพพณิชยการ", "DESC_": "โรงเรียน", "REMARK": null }, "geometry": { "type": "Point", "coordinates": [ 100.524795745522454, 13.811683518896103 ] } },
{ "type": "Feature", "properties": { "CULTURE_": 65290.0, "CULTURE_ID": 65290.0, "CUL_PTYPE": 6100.0, "CUL_PNAME": "โรงเรียนวัดวิมุตยาราม", "DESC_": "โรงเรียน", "REMARK": null }, "geometry": { "type": "Point", "coordinates": [ 100.514557918402687, 13.81099107176852 ] } },
{ "type": "Feature", "properties": { "CULTURE_": 65291.0, "CULTURE_ID": 65291.0, "CUL_PTYPE": 6100.0, "CUL_PNAME": "โรงเรียนรัตนวิทยาบางซื่อ", "DESC_": "โรงเรียน", "REMARK": null }, "geometry": { "type": "Point", "coordinates": [ 100.532625738751719, 13.808803131412086 ] } },
{ "type": "Feature", "properties": { "CULTURE_": 65292.0, "CULTURE_ID": 65292.0, "CUL_PTYPE": 6100.0, "CUL_PNAME": "โรงเรียนมหานครพณิชยการ", "DESC_": "โรงเรียน", "REMARK": null }, "geometry": { "type": "Point", "coordinates": [ 100.560918172998143, 13.807730695139291 ] } },
{ "type": "Feature", "properties": { "CULTURE_": 65293.0, "CULTURE_ID": 65293.0, "CUL_PTYPE": 6100.0, "CUL_PNAME": "โรงเรียนวัดลาดพร้าว", "DESC_": "โรงเรียน", "REMARK": null }, "geometry": { "type": "Point", "coordinates": [ 100.596181231893297, 13.805577156541611 ] } },
{ "type": "Feature", "properties": { "CULTURE_": 65294.0, "CULTURE_ID": 65294.0, "CUL_PTYPE": 6100.0, "CUL_PNAME": "โรงเรียนผดุงศิษย์พณิชยการ", "DESC_": "โรงเรียน", "REMARK": null }, "geometry": { "type": "Point", "coordinates": [ 100.528831735277677, 13.805893348096955 ] } },
{ "type": "Feature", "properties": { "CULTURE_": 65295.0, "CULTURE_ID": 65295.0, "CUL_PTYPE": 6100.0, "CUL_PNAME": "โรงเรียนพณิชยการบางโพ", "DESC_": "โรงเรียน", "REMARK": null }, "geometry": { "type": "Point", "coordinates": [ 100.522135151509701, 13.805717923223641 ] } },
{ "type": "Feature", "properties": { "CULTURE_": 65296.0, "CULTURE_ID": 65296.0, "CUL_PTYPE": 6100.0, "CUL_PNAME": "โรงเรียนผดุงศิษย์พิทยา", "DESC_": "โรงเรียน", "REMARK": null }, "geometry": { "type": "Point", "coordinates": [ 100.525704992618031, 13.805493729017819 ] } },
{ "type": "Feature", "properties": { "CULTURE_": 65297.0, "CULTURE_ID": 65297.0, "CUL_PTYPE": 6100.0, "CUL_PNAME": "โรงเรียนสุเหราบางชัน", "DESC_": "โรงเรียน", "REMARK": null }, "geometry": { "type": "Point", "coordinates": [ 100.702148948103869, 13.804023867174255 ] } },
{ "type": "Feature", "properties": { "CULTURE_": 65299.0, "CULTURE_ID": 65299.0, "CUL_PTYPE": 6100.0, "CUL_PNAME": "โรงเรียนประภาสวิทยา", "DESC_": "โรงเรียน", "REMARK": null }, "geometry": { "type": "Point", "coordinates": [ 100.661999177773566, 13.804022715738514 ] } },
{ "type": "Feature", "properties": { "CULTURE_": 65301.0, "CULTURE_ID": 65301.0, "CUL_PTYPE": 6100.0, "CUL_PNAME": "ไม่มีข้อมูล", "DESC_": "โรงเรียน", "REMARK": null }, "geometry": { "type": "Point", "coordinates": [ 100.594304608315881, 13.803224710167303 ] } },
{ "type": "Feature", "properties": { "CULTURE_": 65302.0, "CULTURE_ID": 65302.0, "CUL_PTYPE": 6100.0, "CUL_PNAME": "โรงเรียนฤทธิไกรศึกษา", "DESC_": "โรงเรียน", "REMARK": null }, "geometry": { "type": "Point", "coordinates": [ 100.596156223542195, 13.803025605988699 ] } },
{ "type": "Feature", "properties": { "CULTURE_": 65303.0, "CULTURE_ID": 65303.0, "CUL_PTYPE": 6100.0, "CUL_PNAME": "โรงเรียนศิริพรรณวิทยา", "DESC_": "โรงเรียน", "REMARK": null }, "geometry": { "type": "Point", "coordinates": [ 100.590305896152543, 13.802958785434463 ] } },
{ "type": "Feature", "properties": { "CULTURE_": 65304.0, "CULTURE_ID": 65304.0, "CUL_PTYPE": 6100.0, "CUL_PNAME": "โรงเรียรแย้มสะอาด", "DESC_": "โรงเรียน", "REMARK": null }, "geometry": { "type": "Point", "coordinates": [ 100.567136614348286, 13.802815841619418 ] } },
{ "type": "Feature", "properties": { "CULTURE_": 65305.0, "CULTURE_ID": 65305.0, "CUL_PTYPE": 6100.0, "CUL_PNAME": "โรงเรียนวัดประดุ่ธรรมมาธิปัตย์", "DESC_": "โรงเรียน", "REMARK": null }, "geometry": { "type": "Point", "coordinates": [ 100.523076965346519, 13.801660167967839 ] } },
{ "type": "Feature", "properties": { "CULTURE_": 65306.0, "CULTURE_ID": 65306.0, "CUL_PTYPE": 6100.0, "CUL_PNAME": "โรงเรียนฉัตรแก้วจงกลณี", "DESC_": "โรงเรียน", "REMARK": null }, "geometry": { "type": "Point", "coordinates": [ 100.513146508635259, 13.801586570432747 ] } },
{ "type": "Feature", "properties": { "CULTURE_": 65307.0, "CULTURE_ID": 65307.0, "CUL_PTYPE": 6100.0, "CUL_PNAME": "ไม่มีข้อมูล", "DESC_": "โรงเรียน", "REMARK": null }, "geometry": { "type": "Point", "coordinates": [ 100.607033260590484, 13.800971706037057 ] } },
{ "type": "Feature", "properties": { "CULTURE_": 65308.0, "CULTURE_ID": 65308.0, "CUL_PTYPE": 6100.0, "CUL_PNAME": "โรงเรียนแม้นศรีพัฒนาวิชาชีพ", "DESC_": "โรงเรียน", "REMARK": null }, "geometry": { "type": "Point", "coordinates": [ 100.584478281618644, 13.801035878366724 ] } },
{ "type": "Feature", "properties": { "CULTURE_": 65309.0, "CULTURE_ID": 65309.0, "CUL_PTYPE": 6100.0, "CUL_PNAME": "โรงเรียนคลองทรงกระเทียม", "DESC_": "โรงเรียน", "REMARK": null }, "geometry": { "type": "Point", "coordinates": [ 100.613088264759298, 13.800752432409464 ] } },
{ "type": "Feature", "properties": { "CULTURE_": 65310.0, "CULTURE_ID": 65310.0, "CUL_PTYPE": 6100.0, "CUL_PNAME": "โรงเรียนวัดบำเพ็ญเหนือ", "DESC_": "โรงเรียน", "REMARK": null }, "geometry": { "type": "Point", "coordinates": [ 100.708354165167364, 13.79986907738534 ] } },
{ "type": "Feature", "properties": { "CULTURE_": 65311.0, "CULTURE_ID": 65311.0, "CUL_PTYPE": 6100.0, "CUL_PNAME": "โรงเรียนอนุบาลจิตรเกษม", "DESC_": "โรงเรียน", "REMARK": null }, "geometry": { "type": "Point", "coordinates": [ 100.711334787529594, 13.798082429267783 ] } },
{ "type": "Feature", "properties": { "CULTURE_": 65312.0, "CULTURE_ID": 65312.0, "CUL_PTYPE": 6100.0, "CUL_PNAME": "โรงเรียนโยธินบูรณะ", "DESC_": "โรงเรียน", "REMARK": null }, "geometry": { "type": "Point", "coordinates": [ 100.532302601546618, 13.799055702965523 ] } },
{ "type": "Feature", "properties": { "CULTURE_": 65313.0, "CULTURE_ID": 65313.0, "CUL_PTYPE": 6100.0, "CUL_PNAME": "โรงเรียนแจ่มศึกษา", "DESC_": "โรงเรียน", "REMARK": null }, "geometry": { "type": "Point", "coordinates": [ 100.590215090486353, 13.798596763110391 ] } },
{ "type": "Feature", "properties": { "CULTURE_": 65314.0, "CULTURE_ID": 65314.0, "CUL_PTYPE": 6100.0, "CUL_PNAME": "ไม่มีข้อมูล", "DESC_": "โรงเรียน", "REMARK": null }, "geometry": { "type": "Point", "coordinates": [ 100.533053811711369, 13.798663016430655 ] } },
{ "type": "Feature", "properties": { "CULTURE_": 65315.0, "CULTURE_ID": 65315.0, "CUL_PTYPE": 6100.0, "CUL_PNAME": "โรงเรียนอนุบาลจิราวิทย์", "DESC_": "โรงเรียน", "REMARK": null }, "geometry": { "type": "Point", "coordinates": [ 100.651505322108036, 13.797770485996342 ] } },
{ "type": "Feature", "properties": { "CULTURE_": 65316.0, "CULTURE_ID": 65316.0, "CUL_PTYPE": 6100.0, "CUL_PNAME": "โรงเรียนทรงวิทย์ศึกษา", "DESC_": "โรงเรียน", "REMARK": null }, "geometry": { "type": "Point", "coordinates": [ 100.697377085086799, 13.797050856885802 ] } },
{ "type": "Feature", "properties": { "CULTURE_": 65317.0, "CULTURE_ID": 65317.0, "CUL_PTYPE": 6100.0, "CUL_PNAME": "โรงเรียนวัดบึงทองหลาง", "DESC_": "โรงเรียน", "REMARK": null }, "geometry": { "type": "Point", "coordinates": [ 100.608007631789476, 13.796786841626291 ] } },
{ "type": "Feature", "properties": { "CULTURE_": 65318.0, "CULTURE_ID": 65318.0, "CUL_PTYPE": 6100.0, "CUL_PNAME": "โรงเรียนช่างฝีมือปัญจะวิทยา", "DESC_": "โรงเรียน", "REMARK": null }, "geometry": { "type": "Point", "coordinates": [ 100.551590240410633, 13.797081388843898 ] } },
{ "type": "Feature", "properties": { "CULTURE_": 65319.0, "CULTURE_ID": 65319.0, "CUL_PTYPE": 6100.0, "CUL_PNAME": "โรงเรียนช่างกลขนส่งทหารบก", "DESC_": "โรงเรียน", "REMARK": null }, "geometry": { "type": "Point", "coordinates": [ 100.518259605960978, 13.797279097685953 ] } },
{ "type": "Feature", "properties": { "CULTURE_": 65320.0, "CULTURE_ID": 65320.0, "CUL_PTYPE": 6100.0, "CUL_PNAME": "โรงเรียนปัญจทรัพย์", "DESC_": "โรงเรียน", "REMARK": null }, "geometry": { "type": "Point", "coordinates": [ 100.5736972417224, 13.796899670981654 ] } },
{ "type": "Feature", "properties": { "CULTURE_": 65321.0, "CULTURE_ID": 65321.0, "CUL_PTYPE": 6100.0, "CUL_PNAME": "โรงเรียนพิบูลอุปถัมภ์", "DESC_": "โรงเรียน", "REMARK": null }, "geometry": { "type": "Point", "coordinates": [ 100.588640460728911, 13.796728697395492 ] } },
{ "type": "Feature", "properties": { "CULTURE_": 65322.0, "CULTURE_ID": 65322.0, "CUL_PTYPE": 6100.0, "CUL_PNAME": "โรงเรียนวัดสามัคคีสุทธาวาส", "DESC_": "โรงเรียน", "REMARK": null }, "geometry": { "type": "Point", "coordinates": [ 100.502158161067086, 13.797657058918157 ] } },
{ "type": "Feature", "properties": { "CULTURE_": 65323.0, "CULTURE_ID": 65323.0, "CUL_PTYPE": 6100.0, "CUL_PNAME": "โรงเรียนเศรษฐบุตรอุปถัมภ์", "DESC_": "โรงเรียน", "REMARK": null }, "geometry": { "type": "Point", "coordinates": [ 100.594640971466191, 13.796383802610928 ] } },
{ "type": "Feature", "properties": { "CULTURE_": 65324.0, "CULTURE_ID": 65324.0, "CUL_PTYPE": 6100.0, "CUL_PNAME": "โรงเรียนวัดไผ่ตัน", "DESC_": "โรงเรียน", "REMARK": null }, "geometry": { "type": "Point", "coordinates": [ 100.548720784991147, 13.79645614089719 ] } },
{ "type": "Feature", "properties": { "CULTURE_": 65325.0, "CULTURE_ID": 65325.0, "CUL_PTYPE": 6100.0, "CUL_PNAME": "โรงเรียนเทพเสนานุสรณ์", "DESC_": "โรงเรียน", "REMARK": null }, "geometry": { "type": "Point", "coordinates": [ 100.604249035380136, 13.795786239338089 ] } },
{ "type": "Feature", "properties": { "CULTURE_": 65326.0, "CULTURE_ID": 65326.0, "CUL_PTYPE": 6100.0, "CUL_PNAME": "โรงเรียนบางอ้อศึกษา", "DESC_": "โรงเรียน", "REMARK": null }, "geometry": { "type": "Point", "coordinates": [ 100.508509904065548, 13.796190450651459 ] } },
{ "type": "Feature", "properties": { "CULTURE_": 65327.0, "CULTURE_ID": 65327.0, "CUL_PTYPE": 6100.0, "CUL_PNAME": "โรงเรียนสิริเทพ", "DESC_": "โรงเรียน", "REMARK": null }, "geometry": { "type": "Point", "coordinates": [ 100.582244262669747, 13.795622078479596 ] } },
{ "type": "Feature", "properties": { "CULTURE_": 65328.0, "CULTURE_ID": 65328.0, "CUL_PTYPE": 6100.0, "CUL_PNAME": "โรงเรียนอนุบาลแก้วฤทัย", "DESC_": "โรงเรียน", "REMARK": null }, "geometry": { "type": "Point", "coordinates": [ 100.642535051261689, 13.79384971423932 ] } },
{ "type": "Feature", "properties": { "CULTURE_": 65329.0, "CULTURE_ID": 65329.0, "CUL_PTYPE": 6100.0, "CUL_PNAME": "โรงเรียนอนุบาลลูกหนู", "DESC_": "โรงเรียน", "REMARK": null }, "geometry": { "type": "Point", "coordinates": [ 100.65171930572464, 13.792927642589028 ] } },
{ "type": "Feature", "properties": { "CULTURE_": 65330.0, "CULTURE_ID": 65330.0, "CUL_PTYPE": 6100.0, "CUL_PNAME": "โรงเรียนคลองสองต้นนุ่น", "DESC_": "โรงเรียน", "REMARK": null }, "geometry": { "type": "Point", "coordinates": [ 100.735566147369653, 13.791975841610791 ] } },
{ "type": "Feature", "properties": { "CULTURE_": 65331.0, "CULTURE_ID": 65331.0, "CUL_PTYPE": 6100.0, "CUL_PNAME": "วิทยาลัยศิลปหัตถกรรมกรุงเทพ", "DESC_": "โรงเรียน", "REMARK": null }, "geometry": { "type": "Point", "coordinates": [ 100.626418646838715, 13.792580018548124 ] } },
{ "type": "Feature", "properties": { "CULTURE_": 65332.0, "CULTURE_ID": 65332.0, "CUL_PTYPE": 6100.0, "CUL_PNAME": "โรงเรียนอนุบาลลาดบัวขาว", "DESC_": "โรงเรียน", "REMARK": null }, "geometry": { "type": "Point", "coordinates": [ 100.71875697118071, 13.791832047801126 ] } },
{ "type": "Feature", "properties": { "CULTURE_": 65333.0, "CULTURE_ID": 65333.0, "CUL_PTYPE": 6100.0, "CUL_PNAME": "โรงเรียนอนุบาล2ภาษาประนันทกิจ", "DESC_": "โรงเรียน", "REMARK": null }, "geometry": { "type": "Point", "coordinates": [ 100.58363767494204, 13.792200820169016 ] } },
{ "type": "Feature", "properties": { "CULTURE_": 65334.0, "CULTURE_ID": 65334.0, "CUL_PTYPE": 6100.0, "CUL_PNAME": "โรงเรียนสอนศาสนานูรุ้ลดีย์", "DESC_": "โรงเรียน", "REMARK": null }, "geometry": { "type": "Point", "coordinates": [ 100.690767228840286, 13.791019781919283 ] } },
{ "type": "Feature", "properties": { "CULTURE_": 65335.0, "CULTURE_ID": 65335.0, "CUL_PTYPE": 6100.0, "CUL_PNAME": "โรงเรียนถนอมพิศวิทยา", "DESC_": "โรงเรียน", "REMARK": null }, "geometry": { "type": "Point", "coordinates": [ 100.598082185588538, 13.791254282912412 ] } },
{ "type": "Feature", "properties": { "CULTURE_": 65336.0, "CULTURE_ID": 65336.0, "CUL_PTYPE": 6100.0, "CUL_PNAME": "โรงเรียนราชินีบน", "DESC_": "โรงเรียน", "REMARK": null }, "geometry": { "type": "Point", "coordinates": [ 100.515294167418432, 13.791007690444179 ] } },
{ "type": "Feature", "properties": { "CULTURE_": 65337.0, "CULTURE_ID": 65337.0, "CUL_PTYPE": 6100.0, "CUL_PNAME": "โรงเรียนโสมาภา2", "DESC_": "โรงเรียน", "REMARK": null }, "geometry": { "type": "Point", "coordinates": [ 100.650523808927375, 13.789935042587265 ] } },
{ "type": "Feature", "properties": { "CULTURE_": 65338.0, "CULTURE_ID": 65338.0, "CUL_PTYPE": 6100.0, "CUL_PNAME": "โรงเรียนวัดอาวุธวิกสิตาราม", "DESC_": "โรงเรียน", "REMARK": null }, "geometry": { "type": "Point", "coordinates": [ 100.505462863743986, 13.790286080254203 ] } },
{ "type": "Feature", "properties": { "CULTURE_": 65339.0, "CULTURE_ID": 65339.0, "CUL_PTYPE": 6100.0, "CUL_PNAME": "โรงเรียนเรวดี", "DESC_": "โรงเรียน", "REMARK": null }, "geometry": { "type": "Point", "coordinates": [ 100.537927382402444, 13.790070204670947 ] } },
{ "type": "Feature", "properties": { "CULTURE_": 65340.0, "CULTURE_ID": 65340.0, "CUL_PTYPE": 6100.0, "CUL_PNAME": "โรงเรียนสมฤทัย", "DESC_": "โรงเรียน", "REMARK": null }, "geometry": { "type": "Point", "coordinates": [ 100.581481272914033, 13.789199020970528 ] } },
{ "type": "Feature", "properties": { "CULTURE_": 65341.0, "CULTURE_ID": 65341.0, "CUL_PTYPE": 6100.0, "CUL_PNAME": "ไม่มีข้อมูล", "DESC_": "โรงเรียน", "REMARK": null }, "geometry": { "type": "Point", "coordinates": [ 100.513743989153667, 13.78927363276823 ] } },
{ "type": "Feature", "properties": { "CULTURE_": 65342.0, "CULTURE_ID": 65342.0, "CUL_PTYPE": 6100.0, "CUL_PNAME": "โรงเรียนวัดบางพลัด", "DESC_": "โรงเรียน", "REMARK": null }, "geometry": { "type": "Point", "coordinates": [ 100.500262292211531, 13.788832424734375 ] } },
{ "type": "Feature", "properties": { "CULTURE_": 65343.0, "CULTURE_ID": 65343.0, "CUL_PTYPE": 6100.0, "CUL_PNAME": "โรงเรียนกันตะบุตร", "DESC_": "โรงเรียน", "REMARK": null }, "geometry": { "type": "Point", "coordinates": [ 100.516527480095178, 13.788725168158077 ] } },
{ "type": "Feature", "properties": { "CULTURE_": 65344.0, "CULTURE_ID": 65344.0, "CUL_PTYPE": 6100.0, "CUL_PNAME": "โรงเรียนกานดา", "DESC_": "โรงเรียน", "REMARK": null }, "geometry": { "type": "Point", "coordinates": [ 100.601313346295669, 13.787903317828935 ] } },
{ "type": "Feature", "properties": { "CULTURE_": 65345.0, "CULTURE_ID": 65345.0, "CUL_PTYPE": 6100.0, "CUL_PNAME": "ไม่มีข้อมูล", "DESC_": "โรงเรียน", "REMARK": null }, "geometry": { "type": "Point", "coordinates": [ 100.519457448049863, 13.788332916743579 ] } },
{ "type": "Feature", "properties": { "CULTURE_": 65346.0, "CULTURE_ID": 65346.0, "CUL_PTYPE": 6100.0, "CUL_PNAME": "โรงเรียนพณิชยการสามเสน", "DESC_": "โรงเรียน", "REMARK": null }, "geometry": { "type": "Point", "coordinates": [ 100.515206838236139, 13.786964284704972 ] } },
{ "type": "Feature", "properties": { "CULTURE_": 65347.0, "CULTURE_ID": 65347.0, "CUL_PTYPE": 6100.0, "CUL_PNAME": "โรงเรียนอนุบาลเบจมาศ", "DESC_": "โรงเรียน", "REMARK": null }, "geometry": { "type": "Point", "coordinates": [ 100.552545522819159, 13.786382664091642 ] } },
{ "type": "Feature", "properties": { "CULTURE_": 65348.0, "CULTURE_ID": 65348.0, "CUL_PTYPE": 6100.0, "CUL_PNAME": "โรงเรียนคลองกุ่ม", "DESC_": "โรงเรียน", "REMARK": null }, "geometry": { "type": "Point", "coordinates": [ 100.674132482645263, 13.785417476042999 ] } },
{ "type": "Feature", "properties": { "CULTURE_": 65349.0, "CULTURE_ID": 65349.0, "CUL_PTYPE": 6100.0, "CUL_PNAME": "ไม่มีข้อมูล", "DESC_": "โรงเรียน", "REMARK": null }, "geometry": { "type": "Point", "coordinates": [ 100.502873470764072, 13.786474964637234 ] } },
{ "type": "Feature", "properties": { "CULTURE_": 65350.0, "CULTURE_ID": 65350.0, "CUL_PTYPE": 6100.0, "CUL_PNAME": "โรงเรียน้ตรียมอุดมศึกษาน้อมเกล้า", "DESC_": "โรงเรียน", "REMARK": null }, "geometry": { "type": "Point", "coordinates": [ 100.691682649417146, 13.784930735054877 ] } },
{ "type": "Feature", "properties": { "CULTURE_": 65351.0, "CULTURE_ID": 65351.0, "CUL_PTYPE": 6100.0, "CUL_PNAME": "โรงเรียนวิมลพณิชยการ", "DESC_": "โรงเรียน", "REMARK": null }, "geometry": { "type": "Point", "coordinates": [ 100.510899355415873, 13.785553990015321 ] } },
{ "type": "Feature", "properties": { "CULTURE_": 65352.0, "CULTURE_ID": 65352.0, "CUL_PTYPE": 6100.0, "CUL_PNAME": "ไม่มีข้อมูล", "DESC_": "โรงเรียน", "REMARK": null }, "geometry": { "type": "Point", "coordinates": [ 100.521360469583144, 13.785429638143896 ] } },
{ "type": "Feature", "properties": { "CULTURE_": 65353.0, "CULTURE_ID": 65353.0, "CUL_PTYPE": 6100.0, "CUL_PNAME": "โรงเรียนวิทยานนท์", "DESC_": "โรงเรียน", "REMARK": null }, "geometry": { "type": "Point", "coordinates": [ 100.705529167925093, 13.784086839691943 ] } },
{ "type": "Feature", "properties": { "CULTURE_": 65354.0, "CULTURE_ID": 65354.0, "CUL_PTYPE": 6100.0, "CUL_PNAME": "โรงเรียนกิจศึกษา", "DESC_": "โรงเรียน", "REMARK": null }, "geometry": { "type": "Point", "coordinates": [ 100.59639950291951, 13.784752002773009 ] } },
{ "type": "Feature", "properties": { "CULTURE_": 65355.0, "CULTURE_ID": 65355.0, "CUL_PTYPE": 6100.0, "CUL_PNAME": "โรงเรียนอาชีวะศิลปศึกษา", "DESC_": "โรงเรียน", "REMARK": null }, "geometry": { "type": "Point", "coordinates": [ 100.511648041537342, 13.784913914561717 ] } },
{ "type": "Feature", "properties": { "CULTURE_": 65356.0, "CULTURE_ID": 65356.0, "CUL_PTYPE": 6100.0, "CUL_PNAME": "โรงเรียนอนุบาลศรีนครพัฒนา", "DESC_": "โรงเรียน", "REMARK": null }, "geometry": { "type": "Point", "coordinates": [ 100.650794771808364, 13.783824238174461 ] } },
{ "type": "Feature", "properties": { "CULTURE_": 65357.0, "CULTURE_ID": 65357.0, "CUL_PTYPE": 6100.0, "CUL_PNAME": "โรงเรียนร่วมฤดีเทศศึกษา", "DESC_": "โรงเรียน", "REMARK": null }, "geometry": { "type": "Point", "coordinates": [ 100.728568965111265, 13.783087953739503 ] } },
{ "type": "Feature", "properties": { "CULTURE_": 65358.0, "CULTURE_ID": 65358.0, "CUL_PTYPE": 6100.0, "CUL_PNAME": "โรงเรียนสามเสนวิทยา", "DESC_": "โรงเรียน", "REMARK": null }, "geometry": { "type": "Point", "coordinates": [ 100.534318213246564, 13.784234145273562 ] } },
{ "type": "Feature", "properties": { "CULTURE_": 65359.0, "CULTURE_ID": 65359.0, "CUL_PTYPE": 6100.0, "CUL_PNAME": "โรงเรียนวัดน้อยเทพคุณ", "DESC_": "โรงเรียน", "REMARK": null }, "geometry": { "type": "Point", "coordinates": [ 100.52057216781175, 13.784297050731048 ] } },
{ "type": "Feature", "properties": { "CULTURE_": 65360.0, "CULTURE_ID": 65360.0, "CUL_PTYPE": 6100.0, "CUL_PNAME": "โรงเรียนอัสสลาม", "DESC_": "โรงเรียน", "REMARK": null }, "geometry": { "type": "Point", "coordinates": [ 100.673930014063814, 13.781714879768566 ] } },
{ "type": "Feature", "properties": { "CULTURE_": 65361.0, "CULTURE_ID": 65361.0, "CUL_PTYPE": 6100.0, "CUL_PNAME": "โรงเรียนกุนนทีรุทธารามวิทยาคม", "DESC_": "โรงเรียน", "REMARK": null }, "geometry": { "type": "Point", "coordinates": [ 100.573033329602211, 13.782369508404621 ] } },
{ "type": "Feature", "properties": { "CULTURE_": 65362.0, "CULTURE_ID": 65362.0, "CUL_PTYPE": 6100.0, "CUL_PNAME": "ไม่มีข้อมูล", "DESC_": "โรงเรียน", "REMARK": null }, "geometry": { "type": "Point", "coordinates": [ 100.510363354327566, 13.782183524231973 ] } },
{ "type": "Feature", "properties": { "CULTURE_": 65363.0, "CULTURE_ID": 65363.0, "CUL_PTYPE": 6100.0, "CUL_PNAME": "ไม่มีข้อมูล", "DESC_": "โรงเรียน", "REMARK": null }, "geometry": { "type": "Point", "coordinates": [ 100.522931032257631, 13.782034707237161 ] } },
{ "type": "Feature", "properties": { "CULTURE_": 65364.0, "CULTURE_ID": 65364.0, "CUL_PTYPE": 6100.0, "CUL_PNAME": "โรงเรัยนสุเหร่าดอนสะแก", "DESC_": "โรงเรียน", "REMARK": null }, "geometry": { "type": "Point", "coordinates": [ 100.612676551669793, 13.780938001604769 ] } },
{ "type": "Feature", "properties": { "CULTURE_": 65365.0, "CULTURE_ID": 65365.0, "CUL_PTYPE": 6100.0, "CUL_PNAME": "โรงเรียนสามแยกคลองหลอแหล", "DESC_": "โรงเรียน", "REMARK": null }, "geometry": { "type": "Point", "coordinates": [ 100.701601676698687, 13.780275429811557 ] } },
{ "type": "Feature", "properties": { "CULTURE_": 65366.0, "CULTURE_ID": 65366.0, "CUL_PTYPE": 6100.0, "CUL_PNAME": "ไม่มีข้อมูล", "DESC_": "โรงเรียน", "REMARK": null }, "geometry": { "type": "Point", "coordinates": [ 100.519840804590217, 13.781312005926821 ] } },
{ "type": "Feature", "properties": { "CULTURE_": 65367.0, "CULTURE_ID": 65367.0, "CUL_PTYPE": 6100.0, "CUL_PNAME": "ไม่มีข้อมูล", "DESC_": "โรงเรียน", "REMARK": null }, "geometry": { "type": "Point", "coordinates": [ 100.523736874557912, 13.78114946084683 ] } },
{ "type": "Feature", "properties": { "CULTURE_": 65368.0, "CULTURE_ID": 65368.0, "CUL_PTYPE": 6100.0, "CUL_PNAME": "โรงเรียนอนุบาลราชพงษา", "DESC_": "โรงเรียน", "REMARK": null }, "geometry": { "type": "Point", "coordinates": [ 100.629345194935922, 13.780255723641641 ] } },
{ "type": "Feature", "properties": { "CULTURE_": 65369.0, "CULTURE_ID": 65369.0, "CUL_PTYPE": 6100.0, "CUL_PNAME": "โรงเรียนศิริเพ็ญ", "DESC_": "โรงเรียน", "REMARK": null }, "geometry": { "type": "Point", "coordinates": [ 100.679898504224383, 13.779781059623812 ] } },
{ "type": "Feature", "properties": { "CULTURE_": 65370.0, "CULTURE_ID": 65370.0, "CUL_PTYPE": 6100.0, "CUL_PNAME": "โรงเรียนจันทร์หุ่นบำเพ็ญ", "DESC_": "โรงเรียน", "REMARK": null }, "geometry": { "type": "Point", "coordinates": [ 100.585563667863823, 13.780343469839496 ] } },
{ "type": "Feature", "properties": { "CULTURE_": 65371.0, "CULTURE_ID": 65371.0, "CUL_PTYPE": 6100.0, "CUL_PNAME": "ไม่มีข้อมูล", "DESC_": "โรงเรียน", "REMARK": null }, "geometry": { "type": "Point", "coordinates": [ 100.515515550533962, 13.780116822300839 ] } },
{ "type": "Feature", "properties": { "CULTURE_": 65372.0, "CULTURE_ID": 65372.0, "CUL_PTYPE": 6100.0, "CUL_PNAME": "ไม่มีข้อมูล", "DESC_": "โรงเรียน", "REMARK": null }, "geometry": { "type": "Point", "coordinates": [ 100.504596525293678, 13.780930958229238 ] } },
{ "type": "Feature", "properties": { "CULTURE_": 65373.0, "CULTURE_ID": 65373.0, "CUL_PTYPE": 6100.0, "CUL_PNAME": "ไม่มีข้อมูล", "DESC_": "โรงเรียน", "REMARK": null }, "geometry": { "type": "Point", "coordinates": [ 100.514145915484207, 13.780355577165178 ] } },
{ "type": "Feature", "properties": { "CULTURE_": 65374.0, "CULTURE_ID": 65374.0, "CUL_PTYPE": 6100.0, "CUL_PNAME": "โรงเรียนอนุบาลโชคชัย", "DESC_": "โรงเรียน", "REMARK": null }, "geometry": { "type": "Point", "coordinates": [ 100.581900564969999, 13.779832007706826 ] } },
{ "type": "Feature", "properties": { "CULTURE_": 65375.0, "CULTURE_ID": 65375.0, "CUL_PTYPE": 6100.0, "CUL_PNAME": "โรงเรียนบางกอกศึกษา", "DESC_": "โรงเรียน", "REMARK": null }, "geometry": { "type": "Point", "coordinates": [ 100.618886396728342, 13.779494157888328 ] } },
{ "type": "Feature", "properties": { "CULTURE_": 65376.0, "CULTURE_ID": 65376.0, "CUL_PTYPE": 6100.0, "CUL_PNAME": "ไม่มีข้อมูล", "DESC_": "โรงเรียน", "REMARK": null }, "geometry": { "type": "Point", "coordinates": [ 100.519053667758129, 13.779951161122812 ] } },
{ "type": "Feature", "properties": { "CULTURE_": 65377.0, "CULTURE_ID": 65377.0, "CUL_PTYPE": 6100.0, "CUL_PNAME": "โรงเรียนณัฐวุฒิ", "DESC_": "โรงเรียน", "REMARK": null }, "geometry": { "type": "Point", "coordinates": [ 100.640401546426872, 13.778876493645743 ] } },
{ "type": "Feature", "properties": { "CULTURE_": 65378.0, "CULTURE_ID": 65378.0, "CUL_PTYPE": 6100.0, "CUL_PNAME": "มหาวิทยาลัยหอการค้าไทย", "DESC_": "โรงเรียน", "REMARK": null }, "geometry": { "type": "Point", "coordinates": [ 100.561096873165667, 13.779328813771475 ] } },
{ "type": "Feature", "properties": { "CULTURE_": 65379.0, "CULTURE_ID": 65379.0, "CUL_PTYPE": 6100.0, "CUL_PNAME": "สถาบันเทคโนโลยีราชมงคลวิทยาเขตจักรพงษ์ภูวนารถ", "DESC_": "โรงเรียน", "REMARK": null }, "geometry": { "type": "Point", "coordinates": [ 100.557234277649655, 13.778747158452331 ] } },
{ "type": "Feature", "properties": { "CULTURE_": 65380.0, "CULTURE_ID": 65380.0, "CUL_PTYPE": 6100.0, "CUL_PNAME": "ไม่มีข้อมูล", "DESC_": "โรงเรียน", "REMARK": null }, "geometry": { "type": "Point", "coordinates": [ 100.504345869178138, 13.778359684992855 ] } },
{ "type": "Feature", "properties": { "CULTURE_": 65381.0, "CULTURE_ID": 65381.0, "CUL_PTYPE": 6100.0, "CUL_PNAME": "โรงเรียนวัดปากบึง", "DESC_": "โรงเรียน", "REMARK": null }, "geometry": { "type": "Point", "coordinates": [ 100.737423120757185, 13.777017083501482 ] } },
{ "type": "Feature", "properties": { "CULTURE_": 65382.0, "CULTURE_ID": 65382.0, "CUL_PTYPE": 6100.0, "CUL_PNAME": "โรงเรียนสามเสนนอก", "DESC_": "โรงเรียน", "REMARK": null }, "geometry": { "type": "Point", "coordinates": [ 100.569337612974607, 13.778123993277216 ] } },
{ "type": "Feature", "properties": { "CULTURE_": 65383.0, "CULTURE_ID": 65383.0, "CUL_PTYPE": 6100.0, "CUL_PNAME": "ไม่มีข้อมูล", "DESC_": "โรงเรียน", "REMARK": null }, "geometry": { "type": "Point", "coordinates": [ 100.521841793504322, 13.778175369640881 ] } },
{ "type": "Feature", "properties": { "CULTURE_": 65384.0, "CULTURE_ID": 65384.0, "CUL_PTYPE": 6100.0, "CUL_PNAME": "โรงเรียนสุรศักดิ์มนตรี", "DESC_": "โรงเรียน", "REMARK": null }, "geometry": { "type": "Point", "coordinates": [ 100.542702445223242, 13.778000567852244 ] } },
{ "type": "Feature", "properties": { "CULTURE_": 65385.0, "CULTURE_ID": 65385.0, "CUL_PTYPE": 6100.0, "CUL_PNAME": "โรงเรียนสวนบัว", "DESC_": "โรงเรียน", "REMARK": null }, "geometry": { "type": "Point", "coordinates": [ 100.541177050265333, 13.777725769585144 ] } },
{ "type": "Feature", "properties": { "CULTURE_": 65386.0, "CULTURE_ID": 65386.0, "CUL_PTYPE": 6100.0, "CUL_PNAME": "โรงเรียนโสมาภาพัฒนา", "DESC_": "โรงเรียน", "REMARK": null }, "geometry": { "type": "Point", "coordinates": [ 100.67183517131086, 13.776738103799222 ] } },
{ "type": "Feature", "properties": { "CULTURE_": 65387.0, "CULTURE_ID": 65387.0, "CUL_PTYPE": 6100.0, "CUL_PNAME": "ไม่มีข้อมูล", "DESC_": "โรงเรียน", "REMARK": null }, "geometry": { "type": "Point", "coordinates": [ 100.506766254732952, 13.777422526156018 ] } },
{ "type": "Feature", "properties": { "CULTURE_": 65388.0, "CULTURE_ID": 65388.0, "CUL_PTYPE": 6100.0, "CUL_PNAME": "ไม่มีข้อมูล", "DESC_": "โรงเรียน", "REMARK": null }, "geometry": { "type": "Point", "coordinates": [ 100.507285949843336, 13.7772771543373 ] } },
{ "type": "Feature", "properties": { "CULTURE_": 65389.0, "CULTURE_ID": 65389.0, "CUL_PTYPE": 6100.0, "CUL_PNAME": "โรงเรียนอิสลามมูต้าอัลเล็ม", "DESC_": "โรงเรียน", "REMARK": null }, "geometry": { "type": "Point", "coordinates": [ 100.724977725154673, 13.77455681981626 ] } },
{ "type": "Feature", "properties": { "CULTURE_": 65390.0, "CULTURE_ID": 65390.0, "CUL_PTYPE": 6100.0, "CUL_PNAME": "ไม่มีข้อมูล", "DESC_": "โรงเรียน", "REMARK": null }, "geometry": { "type": "Point", "coordinates": [ 100.505384917448339, 13.776467527042314 ] } },
{ "type": "Feature", "properties": { "CULTURE_": 65391.0, "CULTURE_ID": 65391.0, "CUL_PTYPE": 6100.0, "CUL_PNAME": "โรงเรียนอนุบาลจุฑาภรณ์", "DESC_": "โรงเรียน", "REMARK": null }, "geometry": { "type": "Point", "coordinates": [ 100.587683833768153, 13.776404927990042 ] } },
{ "type": "Feature", "properties": { "CULTURE_": 65392.0, "CULTURE_ID": 65392.0, "CUL_PTYPE": 6100.0, "CUL_PNAME": "ไม่มีข้อมูล", "DESC_": "โรงเรียน", "REMARK": null }, "geometry": { "type": "Point", "coordinates": [ 100.503183019236843, 13.776811827252354 ] } },
{ "type": "Feature", "properties": { "CULTURE_": 65393.0, "CULTURE_ID": 65393.0, "CUL_PTYPE": 6100.0, "CUL_PNAME": "โรงเรียนสุเหร่าลำนายโส", "DESC_": "โรงเรียน", "REMARK": null }, "geometry": { "type": "Point", "coordinates": [ 100.724254666124622, 13.775224083777623 ] } },
{ "type": "Feature", "properties": { "CULTURE_": 65394.0, "CULTURE_ID": 65394.0, "CUL_PTYPE": 6100.0, "CUL_PNAME": "สถาบันราชภัฎสวนดุสิต", "DESC_": "โรงเรียน", "REMARK": null }, "geometry": { "type": "Point", "coordinates": [ 100.510175123721396, 13.776511109237637 ] } },
{ "type": "Feature", "properties": { "CULTURE_": 65395.0, "CULTURE_ID": 65395.0, "CUL_PTYPE": 6100.0, "CUL_PNAME": "โรงเรียนวชิราวุธวิทยาลัยพระตำหนักสวนจิตลัลดา", "DESC_": "โรงเรียน", "REMARK": null }, "geometry": { "type": "Point", "coordinates": [ 100.518070706045904, 13.775854647105076 ] } },
{ "type": "Feature", "properties": { "CULTURE_": 65396.0, "CULTURE_ID": 65396.0, "CUL_PTYPE": 6100.0, "CUL_PNAME": "ไม่มีข้อมูล", "DESC_": "โรงเรียน", "REMARK": null }, "geometry": { "type": "Point", "coordinates": [ 100.528602437677563, 13.775372143886038 ] } },
{ "type": "Feature", "properties": { "CULTURE_": 65397.0, "CULTURE_ID": 65397.0, "CUL_PTYPE": 6100.0, "CUL_PNAME": "ไม่มีข้อมูล", "DESC_": "โรงเรียน", "REMARK": null }, "geometry": { "type": "Point", "coordinates": [ 100.50446799503392, 13.774817417715068 ] } },
{ "type": "Feature", "properties": { "CULTURE_": 65398.0, "CULTURE_ID": 65398.0, "CUL_PTYPE": 6100.0, "CUL_PNAME": "สถาบันราชภัฎสวนสุนันทา", "DESC_": "โรงเรียน", "REMARK": null }, "geometry": { "type": "Point", "coordinates": [ 100.507865411890762, 13.774512258396214 ] } },
{ "type": "Feature", "properties": { "CULTURE_": 65399.0, "CULTURE_ID": 65399.0, "CUL_PTYPE": 6100.0, "CUL_PNAME": "โรงเรียนอิสลามสันติชน", "DESC_": "โรงเรียน", "REMARK": null }, "geometry": { "type": "Point", "coordinates": [ 100.619833150925771, 13.773561421153785 ] } },
{ "type": "Feature", "properties": { "CULTURE_": 65400.0, "CULTURE_ID": 65400.0, "CUL_PTYPE": 6100.0, "CUL_PNAME": "โรงเรียนพิชัยพัฒนา", "DESC_": "โรงเรียน", "REMARK": null }, "geometry": { "type": "Point", "coordinates": [ 100.656538601539381, 13.773213142261502 ] } },
{ "type": "Feature", "properties": { "CULTURE_": 65401.0, "CULTURE_ID": 65401.0, "CUL_PTYPE": 6100.0, "CUL_PNAME": "โรงเรียนอุดมเกษมบริหารธุรกิจนานาชาติ", "DESC_": "โรงเรียน", "REMARK": null }, "geometry": { "type": "Point", "coordinates": [ 100.61137722405077, 13.773441837809608 ] } },
{ "type": "Feature", "properties": { "CULTURE_": 65402.0, "CULTURE_ID": 65402.0, "CUL_PTYPE": 6100.0, "CUL_PNAME": "โรงเรียนประชาราษฎร์อุปถัมภ์", "DESC_": "โรงเรียน", "REMARK": null }, "geometry": { "type": "Point", "coordinates": [ 100.574183001925149, 13.772514977807914 ] } },
{ "type": "Feature", "properties": { "CULTURE_": 65403.0, "CULTURE_ID": 65403.0, "CUL_PTYPE": 6100.0, "CUL_PNAME": "โรงเรียนมัสยิดมาร่อตุ๊ดดีน", "DESC_": "โรงเรียน", "REMARK": null }, "geometry": { "type": "Point", "coordinates": [ 100.591846560942585, 13.772693395824977 ] } },
{ "type": "Feature", "properties": { "CULTURE_": 65404.0, "CULTURE_ID": 65404.0, "CUL_PTYPE": 6100.0, "CUL_PNAME": "ไม่มีข้อมูล", "DESC_": "โรงเรียน", "REMARK": null }, "geometry": { "type": "Point", "coordinates": [ 100.502081828900174, 13.773813893843879 ] } },
{ "type": "Feature", "properties": { "CULTURE_": 65405.0, "CULTURE_ID": 65405.0, "CUL_PTYPE": 6100.0, "CUL_PNAME": "โรงเรียนดรุณพิทยา", "DESC_": "โรงเรียน", "REMARK": null }, "geometry": { "type": "Point", "coordinates": [ 100.56142647154627, 13.772469177254548 ] } },
{ "type": "Feature", "properties": { "CULTURE_": 65406.0, "CULTURE_ID": 65406.0, "CUL_PTYPE": 6100.0, "CUL_PNAME": "ไม่มีข้อมูล", "DESC_": "โรงเรียน", "REMARK": null }, "geometry": { "type": "Point", "coordinates": [ 100.502677975794029, 13.772662695787128 ] } },
{ "type": "Feature", "properties": { "CULTURE_": 65407.0, "CULTURE_ID": 65407.0, "CUL_PTYPE": 6100.0, "CUL_PNAME": "โรงเรียนบ้านบางกะปิ", "DESC_": "โรงเรียน", "REMARK": null }, "geometry": { "type": "Point", "coordinates": [ 100.646727155152902, 13.771483086947793 ] } },
{ "type": "Feature", "properties": { "CULTURE_": 65408.0, "CULTURE_ID": 65408.0, "CUL_PTYPE": 6100.0, "CUL_PNAME": "โรงเรียนพระคุณโปลีเทคนิคกรุงเทพ", "DESC_": "โรงเรียน", "REMARK": null }, "geometry": { "type": "Point", "coordinates": [ 100.616494644301142, 13.771253189706426 ] } },
{ "type": "Feature", "properties": { "CULTURE_": 65409.0, "CULTURE_ID": 65409.0, "CUL_PTYPE": 6100.0, "CUL_PNAME": "โรงเรียนราชวินิต", "DESC_": "โรงเรียน", "REMARK": null }, "geometry": { "type": "Point", "coordinates": [ 100.5080925843492, 13.77173157701155 ] } },
{ "type": "Feature", "properties": { "CULTURE_": 65410.0, "CULTURE_ID": 65410.0, "CUL_PTYPE": 6100.0, "CUL_PNAME": "โรงเรียนซำคุ้ลย่ามาน", "DESC_": "โรงเรียน", "REMARK": null }, "geometry": { "type": "Point", "coordinates": [ 100.714762805623351, 13.769895914059356 ] } },
{ "type": "Feature", "properties": { "CULTURE_": 65411.0, "CULTURE_ID": 65411.0, "CUL_PTYPE": 6100.0, "CUL_PNAME": "สถาบันเทคโนโลยีราชมงคลวิทยาเขตเทเวศน์", "DESC_": "โรงเรียน", "REMARK": null }, "geometry": { "type": "Point", "coordinates": [ 100.504594847532317, 13.771205571881813 ] } },
{ "type": "Feature", "properties": { "CULTURE_": 65412.0, "CULTURE_ID": 65412.0, "CUL_PTYPE": 6100.0, "CUL_PNAME": "โรงเรียนสุเหร่าลาดบัวขาว", "DESC_": "โรงเรียน", "REMARK": null }, "geometry": { "type": "Point", "coordinates": [ 100.713635658464042, 13.769144071286126 ] } },
{ "type": "Feature", "properties": { "CULTURE_": 65413.0, "CULTURE_ID": 65413.0, "CUL_PTYPE": 6100.0, "CUL_PNAME": "โรงเรียนบางกะปิ", "DESC_": "โรงเรียน", "REMARK": null }, "geometry": { "type": "Point", "coordinates": [ 100.652151707973175, 13.769920230734764 ] } },
{ "type": "Feature", "properties": { "CULTURE_": 65414.0, "CULTURE_ID": 65414.0, "CUL_PTYPE": 6100.0, "CUL_PNAME": "ไม่มีข้อมูล", "DESC_": "โรงเรียน", "REMARK": null }, "geometry": { "type": "Point", "coordinates": [ 100.503921811359959, 13.77082167758055 ] } },
{ "type": "Feature", "properties": { "CULTURE_": 65415.0, "CULTURE_ID": 65415.0, "CUL_PTYPE": 6100.0, "CUL_PNAME": "โรงเรียนพร้อมพรรณวิทยา", "DESC_": "โรงเรียน", "REMARK": null }, "geometry": { "type": "Point", "coordinates": [ 100.559476091229698, 13.770446126027325 ] } },
{ "type": "Feature", "properties": { "CULTURE_": 65416.0, "CULTURE_ID": 65416.0, "CUL_PTYPE": 6100.0, "CUL_PNAME": "โรงเรียนสตรีพร้อมพรรณวิทยา", "DESC_": "โรงเรียน", "REMARK": null }, "geometry": { "type": "Point", "coordinates": [ 100.560356141988933, 13.77038816807174 ] } },
{ "type": "Feature", "properties": { "CULTURE_": 65417.0, "CULTURE_ID": 65417.0, "CUL_PTYPE": 6100.0, "CUL_PNAME": "โรงเรียนสุเหร่าซีรอ", "DESC_": "โรงเรียน", "REMARK": null }, "geometry": { "type": "Point", "coordinates": [ 100.694640911568072, 13.769425665949754 ] } },
{ "type": "Feature", "properties": { "CULTURE_": 65418.0, "CULTURE_ID": 65418.0, "CUL_PTYPE": 6100.0, "CUL_PNAME": "โรงเรียนนานาชาติเกศินี", "DESC_": "โรงเรียน", "REMARK": null }, "geometry": { "type": "Point", "coordinates": [ 100.589920188928218, 13.769727593147316 ] } },
{ "type": "Feature", "properties": { "CULTURE_": 65419.0, "CULTURE_ID": 65419.0, "CUL_PTYPE": 6100.0, "CUL_PNAME": "สถาบันบัณฑิตพัฒนาบริหารศาสตร์", "DESC_": "โรงเรียน", "REMARK": null }, "geometry": { "type": "Point", "coordinates": [ 100.653246334576139, 13.76935735766617 ] } },
{ "type": "Feature", "properties": { "CULTURE_": 65420.0, "CULTURE_ID": 65420.0, "CUL_PTYPE": 6100.0, "CUL_PNAME": "โรงเรียนนานาชาติไอเอสอาร์บางกอก", "DESC_": "โรงเรียน", "REMARK": null }, "geometry": { "type": "Point", "coordinates": [ 100.585022511160744, 13.769347595088021 ] } },
{ "type": "Feature", "properties": { "CULTURE_": 65421.0, "CULTURE_ID": 65421.0, "CUL_PTYPE": 6100.0, "CUL_PNAME": "โรงเรียนพณิชยการจำนงค์", "DESC_": "โรงเรียน", "REMARK": null }, "geometry": { "type": "Point", "coordinates": [ 100.560612967546618, 13.768710306906716 ] } },
{ "type": "Feature", "properties": { "CULTURE_": 65422.0, "CULTURE_ID": 65422.0, "CUL_PTYPE": 6100.0, "CUL_PNAME": "ไม่มีข้อมูล", "DESC_": "โรงเรียน", "REMARK": null }, "geometry": { "type": "Point", "coordinates": [ 100.529154573737245, 13.76844372211902 ] } },
{ "type": "Feature", "properties": { "CULTURE_": 65423.0, "CULTURE_ID": 65423.0, "CUL_PTYPE": 6100.0, "CUL_PNAME": "ไม่มีข้อมูล", "DESC_": "โรงเรียน", "REMARK": null }, "geometry": { "type": "Point", "coordinates": [ 100.554939581905259, 13.767496512718132 ] } },
{ "type": "Feature", "properties": { "CULTURE_": 65424.0, "CULTURE_ID": 65424.0, "CUL_PTYPE": 6100.0, "CUL_PNAME": "โรงเรียนวัดศรีบุญเรือง", "DESC_": "โรงเรียน", "REMARK": null }, "geometry": { "type": "Point", "coordinates": [ 100.652641458731708, 13.766620751605211 ] } },
{ "type": "Feature", "properties": { "CULTURE_": 65425.0, "CULTURE_ID": 65425.0, "CUL_PTYPE": 6100.0, "CUL_PNAME": "โรงเรียนเคหะชุมชนลาดกระบัง", "DESC_": "โรงเรียน", "REMARK": null }, "geometry": { "type": "Point", "coordinates": [ 100.729975478744649, 13.765734188977541 ] } },
{ "type": "Feature", "properties": { "CULTURE_": 65426.0, "CULTURE_ID": 65426.0, "CUL_PTYPE": 6100.0, "CUL_PNAME": "ไม่มีข้อมูล", "DESC_": "โรงเรียน", "REMARK": null }, "geometry": { "type": "Point", "coordinates": [ 100.504488011689261, 13.767173836454134 ] } },
{ "type": "Feature", "properties": { "CULTURE_": 65427.0, "CULTURE_ID": 65427.0, "CUL_PTYPE": 6100.0, "CUL_PNAME": "ไม่มีข้อมูล", "DESC_": "โรงเรียน", "REMARK": null }, "geometry": { "type": "Point", "coordinates": [ 100.502166841728652, 13.766956019337426 ] } },
{ "type": "Feature", "properties": { "CULTURE_": 65428.0, "CULTURE_ID": 65428.0, "CUL_PTYPE": 6100.0, "CUL_PNAME": "โรงเรียนถนอมบุตร", "DESC_": "โรงเรียน", "REMARK": null }, "geometry": { "type": "Point", "coordinates": [ 100.652264201220717, 13.765449746801561 ] } },
{ "type": "Feature", "properties": { "CULTURE_": 65429.0, "CULTURE_ID": 65429.0, "CUL_PTYPE": 6100.0, "CUL_PNAME": "โรงเรียนมัธยมวัดเบญจมบพิตร", "DESC_": "โรงเรียน", "REMARK": null }, "geometry": { "type": "Point", "coordinates": [ 100.512708793266782, 13.766427526491572 ] } },
{ "type": "Feature", "properties": { "CULTURE_": 65430.0, "CULTURE_ID": 65430.0, "CUL_PTYPE": 6100.0, "CUL_PNAME": "โรงเรียนพิบูลประชาสรรค์", "DESC_": "โรงเรียน", "REMARK": null }, "geometry": { "type": "Point", "coordinates": [ 100.544904162221627, 13.76584601835769 ] } },
{ "type": "Feature", "properties": { "CULTURE_": 65431.0, "CULTURE_ID": 65431.0, "CUL_PTYPE": 6100.0, "CUL_PNAME": "มหาวิทยาลัยมหิดล", "DESC_": "โรงเรียน", "REMARK": null }, "geometry": { "type": "Point", "coordinates": [ 100.534994705071099, 13.765885536535395 ] } },
{ "type": "Feature", "properties": { "CULTURE_": 65432.0, "CULTURE_ID": 65432.0, "CUL_PTYPE": 6100.0, "CUL_PNAME": "โรงเรียนจำนงค์วิทยา", "DESC_": "โรงเรียน", "REMARK": null }, "geometry": { "type": "Point", "coordinates": [ 100.559655424975816, 13.765161870579764 ] } },
{ "type": "Feature", "properties": { "CULTURE_": 65433.0, "CULTURE_ID": 65433.0, "CUL_PTYPE": 6100.0, "CUL_PNAME": "ไม่มีข้อมูล", "DESC_": "โรงเรียน", "REMARK": null }, "geometry": { "type": "Point", "coordinates": [ 100.506926567641528, 13.765400342495331 ] } },
{ "type": "Feature", "properties": { "CULTURE_": 65434.0, "CULTURE_ID": 65434.0, "CUL_PTYPE": 6100.0, "CUL_PNAME": "โรงเรียนไขศรีปราโมทอนุสรณ์", "DESC_": "โรงเรียน", "REMARK": null }, "geometry": { "type": "Point", "coordinates": [ 100.637356627390616, 13.764227302697401 ] } },
{ "type": "Feature", "properties": { "CULTURE_": 65435.0, "CULTURE_ID": 65435.0, "CUL_PTYPE": 6100.0, "CUL_PNAME": "โรงเรียนสุเหราคลองจั่น", "DESC_": "โรงเรียน", "REMARK": null }, "geometry": { "type": "Point", "coordinates": [ 100.634730679759002, 13.764211066798675 ] } },
{ "type": "Feature", "properties": { "CULTURE_": 65436.0, "CULTURE_ID": 65436.0, "CUL_PTYPE": 6100.0, "CUL_PNAME": "โรงเรียนเทคโนโลยีบางกะปิ", "DESC_": "โรงเรียน", "REMARK": null }, "geometry": { "type": "Point", "coordinates": [ 100.66178955983284, 13.763992573837113 ] } },
{ "type": "Feature", "properties": { "CULTURE_": 65437.0, "CULTURE_ID": 65437.0, "CUL_PTYPE": 6100.0, "CUL_PNAME": "ไม่มีข้อมูล", "DESC_": "โรงเรียน", "REMARK": null }, "geometry": { "type": "Point", "coordinates": [ 100.501146739806515, 13.764863517067864 ] } },
{ "type": "Feature", "properties": { "CULTURE_": 65438.0, "CULTURE_ID": 65438.0, "CUL_PTYPE": 6100.0, "CUL_PNAME": "โรงเรียนเทคนิควิทยา", "DESC_": "โรงเรียน", "REMARK": null }, "geometry": { "type": "Point", "coordinates": [ 100.558609325768586, 13.764420175015708 ] } },
{ "type": "Feature", "properties": { "CULTURE_": 65439.0, "CULTURE_ID": 65439.0, "CUL_PTYPE": 6100.0, "CUL_PNAME": "ไม่มีข้อมูล", "DESC_": "โรงเรียน", "REMARK": null }, "geometry": { "type": "Point", "coordinates": [ 100.512810110600157, 13.764324096639777 ] } },
{ "type": "Feature", "properties": { "CULTURE_": 65440.0, "CULTURE_ID": 65440.0, "CUL_PTYPE": 6100.0, "CUL_PNAME": "ไม่มีข้อมูล", "DESC_": "โรงเรียน", "REMARK": null }, "geometry": { "type": "Point", "coordinates": [ 100.507930069437052, 13.76429415371153 ] } },
{ "type": "Feature", "properties": { "CULTURE_": 65441.0, "CULTURE_ID": 65441.0, "CUL_PTYPE": 6100.0, "CUL_PNAME": "วิทยาลัยพณิชยการอินทราชัย", "DESC_": "โรงเรียน", "REMARK": null }, "geometry": { "type": "Point", "coordinates": [ 100.603437887634456, 13.763305547067624 ] } },
{ "type": "Feature", "properties": { "CULTURE_": 65442.0, "CULTURE_ID": 65442.0, "CUL_PTYPE": 6100.0, "CUL_PNAME": "ไม่มีข้อมูล", "DESC_": "โรงเรียน", "REMARK": null }, "geometry": { "type": "Point", "coordinates": [ 100.551075151593693, 13.763120767208541 ] } },
{ "type": "Feature", "properties": { "CULTURE_": 65443.0, "CULTURE_ID": 65443.0, "CUL_PTYPE": 6100.0, "CUL_PNAME": "ไม่มีข้อมูล", "DESC_": "โรงเรียน", "REMARK": null }, "geometry": { "type": "Point", "coordinates": [ 100.514225674251051, 13.763013297508403 ] } },
{ "type": "Feature", "properties": { "CULTURE_": 65444.0, "CULTURE_ID": 65444.0, "CUL_PTYPE": 6100.0, "CUL_PNAME": "โรงเรียนอนุบาลกาญนาพร", "DESC_": "โรงเรียน", "REMARK": null }, "geometry": { "type": "Point", "coordinates": [ 100.646956864632202, 13.761645300272182 ] } },
{ "type": "Feature", "properties": { "CULTURE_": 65445.0, "CULTURE_ID": 65445.0, "CUL_PTYPE": 6100.0, "CUL_PNAME": "ไม่มีข้อมูล", "DESC_": "โรงเรียน", "REMARK": null }, "geometry": { "type": "Point", "coordinates": [ 100.546740578005995, 13.762201399114575 ] } },
{ "type": "Feature", "properties": { "CULTURE_": 65446.0, "CULTURE_ID": 65446.0, "CUL_PTYPE": 6100.0, "CUL_PNAME": "โรงเรียนดุสิตพาณิชยการ", "DESC_": "โรงเรียน", "REMARK": null }, "geometry": { "type": "Point", "coordinates": [ 100.536180634635642, 13.762256251166907 ] } },
{ "type": "Feature", "properties": { "CULTURE_": 65447.0, "CULTURE_ID": 65447.0, "CUL_PTYPE": 6100.0, "CUL_PNAME": "โรงเรียนอนุบาลวังทอง", "DESC_": "โรงเรียน", "REMARK": null }, "geometry": { "type": "Point", "coordinates": [ 100.732235765266111, 13.760805984376638 ] } },
{ "type": "Feature", "properties": { "CULTURE_": 65448.0, "CULTURE_ID": 65448.0, "CUL_PTYPE": 6100.0, "CUL_PNAME": "ไม่มีข้อมูล", "DESC_": "โรงเรียน", "REMARK": null }, "geometry": { "type": "Point", "coordinates": [ 100.502468204469935, 13.762167359860182 ] } },
{ "type": "Feature", "properties": { "CULTURE_": 65449.0, "CULTURE_ID": 65449.0, "CUL_PTYPE": 6100.0, "CUL_PNAME": "ไม่มีข้อมูล", "DESC_": "โรงเรียน", "REMARK": null }, "geometry": { "type": "Point", "coordinates": [ 100.51446284668684, 13.761799544740885 ] } },
{ "type": "Feature", "properties": { "CULTURE_": 65450.0, "CULTURE_ID": 65450.0, "CUL_PTYPE": 6100.0, "CUL_PNAME": "โรงเรียนสมาคมไทย-ญี่ปุ่น", "DESC_": "โรงเรียน", "REMARK": null }, "geometry": { "type": "Point", "coordinates": [ 100.592504062538964, 13.761248316184449 ] } },
{ "type": "Feature", "properties": { "CULTURE_": 65451.0, "CULTURE_ID": 65451.0, "CUL_PTYPE": 6100.0, "CUL_PNAME": "ไม่มีข้อมูล", "DESC_": "โรงเรียน", "REMARK": null }, "geometry": { "type": "Point", "coordinates": [ 100.510592502359685, 13.761625770645043 ] } },
{ "type": "Feature", "properties": { "CULTURE_": 65452.0, "CULTURE_ID": 65452.0, "CUL_PTYPE": 6100.0, "CUL_PNAME": "โรงเรียนรัตนโกสินทร์โภชลาดกระบัง", "DESC_": "โรงเรียน", "REMARK": null }, "geometry": { "type": "Point", "coordinates": [ 100.730921538028113, 13.760096888133562 ] } },
{ "type": "Feature", "properties": { "CULTURE_": 65453.0, "CULTURE_ID": 65453.0, "CUL_PTYPE": 6100.0, "CUL_PNAME": "โรงเรียนแม่พระฟาติมา", "DESC_": "โรงเรียน", "REMARK": null }, "geometry": { "type": "Point", "coordinates": [ 100.556978268745354, 13.761025807113722 ] } },
{ "type": "Feature", "properties": { "CULTURE_": 65454.0, "CULTURE_ID": 65454.0, "CUL_PTYPE": 6100.0, "CUL_PNAME": "ไม่มีข้อมูล", "DESC_": "โรงเรียน", "REMARK": null }, "geometry": { "type": "Point", "coordinates": [ 100.543639677652081, 13.76098314247357 ] } },
{ "type": "Feature", "properties": { "CULTURE_": 65455.0, "CULTURE_ID": 65455.0, "CUL_PTYPE": 6100.0, "CUL_PNAME": "โรงเรียนอนุบาลเด็กสากล", "DESC_": "โรงเรียน", "REMARK": null }, "geometry": { "type": "Point", "coordinates": [ 100.652620306293201, 13.759905786763939 ] } },
{ "type": "Feature", "properties": { "CULTURE_": 65456.0, "CULTURE_ID": 65456.0, "CUL_PTYPE": 6100.0, "CUL_PNAME": "โรงเรียนวัดเทพลีลา", "DESC_": "โรงเรียน", "REMARK": null }, "geometry": { "type": "Point", "coordinates": [ 100.614922213604899, 13.759708875233871 ] } },
{ "type": "Feature", "properties": { "CULTURE_": 65457.0, "CULTURE_ID": 65457.0, "CUL_PTYPE": 6100.0, "CUL_PNAME": "โรงเรียนพระราม 9 กาญจนาภิเษก", "DESC_": "โรงเรียน", "REMARK": null }, "geometry": { "type": "Point", "coordinates": [ 100.59274665582376, 13.759765102121476 ] } },
{ "type": "Feature", "properties": { "CULTURE_": 65458.0, "CULTURE_ID": 65458.0, "CUL_PTYPE": 6100.0, "CUL_PNAME": "ไม่มีข้อมูล", "DESC_": "โรงเรียน", "REMARK": null }, "geometry": { "type": "Point", "coordinates": [ 100.541424242069411, 13.759365672954315 ] } },
{ "type": "Feature", "properties": { "CULTURE_": 65459.0, "CULTURE_ID": 65459.0, "CUL_PTYPE": 6100.0, "CUL_PNAME": "โรงเรียนสุเหร่าหัวหมากน้อย", "DESC_": "โรงเรียน", "REMARK": null }, "geometry": { "type": "Point", "coordinates": [ 100.656789438498976, 13.758392439172336 ] } },
{ "type": "Feature", "properties": { "CULTURE_": 65460.0, "CULTURE_ID": 65460.0, "CUL_PTYPE": 6100.0, "CUL_PNAME": "โรงเรียนศรีอยุธยา", "DESC_": "โรงเรียน", "REMARK": null }, "geometry": { "type": "Point", "coordinates": [ 100.538534051854356, 13.757580277549991 ] } },
{ "type": "Feature", "properties": { "CULTURE_": 65461.0, "CULTURE_ID": 65461.0, "CUL_PTYPE": 6100.0, "CUL_PNAME": "โรงเรียนพณิชยการเจ้าพระยา", "DESC_": "โรงเรียน", "REMARK": null }, "geometry": { "type": "Point", "coordinates": [ 100.508248943163451, 13.757281134056967 ] } },
{ "type": "Feature", "properties": { "CULTURE_": 65462.0, "CULTURE_ID": 65462.0, "CUL_PTYPE": 6100.0, "CUL_PNAME": "โรงเรียนอนุบาลวิมานเมฆ", "DESC_": "โรงเรียน", "REMARK": null }, "geometry": { "type": "Point", "coordinates": [ 100.608703411606569, 13.756365161401781 ] } },
{ "type": "Feature", "properties": { "CULTURE_": 65463.0, "CULTURE_ID": 65463.0, "CUL_PTYPE": 6100.0, "CUL_PNAME": "โรงเรียนเทคโนโลยีอุตสาหกรรมกรุงเทพฯ", "DESC_": "โรงเรียน", "REMARK": null }, "geometry": { "type": "Point", "coordinates": [ 100.632605541645717, 13.755826336843089 ] } },
{ "type": "Feature", "properties": { "CULTURE_": 65464.0, "CULTURE_ID": 65464.0, "CUL_PTYPE": 6100.0, "CUL_PNAME": "โรงเรียนสันติราษฎร์วิทยาลัย", "DESC_": "โรงเรียน", "REMARK": null }, "geometry": { "type": "Point", "coordinates": [ 100.523795358711084, 13.755430614719465 ] } },
{ "type": "Feature", "properties": { "CULTURE_": 65465.0, "CULTURE_ID": 65465.0, "CUL_PTYPE": 6100.0, "CUL_PNAME": "โรงเรียนกิ่งเพชร", "DESC_": "โรงเรียน", "REMARK": null }, "geometry": { "type": "Point", "coordinates": [ 100.527758936085974, 13.755121708725934 ] } },
{ "type": "Feature", "properties": { "CULTURE_": 65466.0, "CULTURE_ID": 65466.0, "CUL_PTYPE": 6100.0, "CUL_PNAME": "มหาวิทยาลัยอัสสัมชัญ", "DESC_": "โรงเรียน", "REMARK": null }, "geometry": { "type": "Point", "coordinates": [ 100.62768200124988, 13.753988246596739 ] } },
{ "type": "Feature", "properties": { "CULTURE_": 65467.0, "CULTURE_ID": 65467.0, "CUL_PTYPE": 6100.0, "CUL_PNAME": "โรงเรียนเกริกไทยพัฒนาฝีมือ", "DESC_": "โรงเรียน", "REMARK": null }, "geometry": { "type": "Point", "coordinates": [ 100.645391590282031, 13.753466501347662 ] } },
{ "type": "Feature", "properties": { "CULTURE_": 65468.0, "CULTURE_ID": 65468.0, "CUL_PTYPE": 6100.0, "CUL_PNAME": "โรงเรียนชาญวิทย์", "DESC_": "โรงเรียน", "REMARK": null }, "geometry": { "type": "Point", "coordinates": [ 100.589888708139398, 13.753733495834476 ] } },
{ "type": "Feature", "properties": { "CULTURE_": 65469.0, "CULTURE_ID": 65469.0, "CUL_PTYPE": 6100.0, "CUL_PNAME": "ไม่มีข้อมูล", "DESC_": "โรงเรียน", "REMARK": null }, "geometry": { "type": "Point", "coordinates": [ 100.515339409814302, 13.752872295004408 ] } },
{ "type": "Feature", "properties": { "CULTURE_": 65470.0, "CULTURE_ID": 65470.0, "CUL_PTYPE": 6100.0, "CUL_PNAME": "โรงเรียนอนุบาลวิมลทิพย์", "DESC_": "โรงเรียน", "REMARK": null }, "geometry": { "type": "Point", "coordinates": [ 100.622224455822035, 13.751738107524428 ] } },
{ "type": "Feature", "properties": { "CULTURE_": 65471.0, "CULTURE_ID": 65471.0, "CUL_PTYPE": 6100.0, "CUL_PNAME": "โรงเรียนอนุบาลใจทิพ", "DESC_": "โรงเรียน", "REMARK": null }, "geometry": { "type": "Point", "coordinates": [ 100.608197702545965, 13.751815048630748 ] } },
{ "type": "Feature", "properties": { "CULTURE_": 65472.0, "CULTURE_ID": 65472.0, "CUL_PTYPE": 6100.0, "CUL_PNAME": "ไม่มีข้อมูล", "DESC_": "โรงเรียน", "REMARK": null }, "geometry": { "type": "Point", "coordinates": [ 100.521873274840814, 13.752265835468224 ] } },
{ "type": "Feature", "properties": { "CULTURE_": 65473.0, "CULTURE_ID": 65473.0, "CUL_PTYPE": 6100.0, "CUL_PNAME": "ไม่มีข้อมูล", "DESC_": "โรงเรียน", "REMARK": null }, "geometry": { "type": "Point", "coordinates": [ 100.643953294911469, 13.751395851147398 ] } },
{ "type": "Feature", "properties": { "CULTURE_": 65474.0, "CULTURE_ID": 65474.0, "CUL_PTYPE": 6100.0, "CUL_PNAME": "ไม่มีข้อมูล", "DESC_": "โรงเรียน", "REMARK": null }, "geometry": { "type": "Point", "coordinates": [ 100.520254779911838, 13.752330013288761 ] } },
{ "type": "Feature", "properties": { "CULTURE_": 65475.0, "CULTURE_ID": 65475.0, "CUL_PTYPE": 6100.0, "CUL_PNAME": "โรงเรียนอนุบาลบ้านทิพย์", "DESC_": "โรงเรียน", "REMARK": null }, "geometry": { "type": "Point", "coordinates": [ 100.61494745196255, 13.751063774834236 ] } },
{ "type": "Feature", "properties": { "CULTURE_": 65476.0, "CULTURE_ID": 65476.0, "CUL_PTYPE": 6100.0, "CUL_PNAME": "ไม่มีข้อมูล", "DESC_": "โรงเรียน", "REMARK": null }, "geometry": { "type": "Point", "coordinates": [ 100.515323118965441, 13.751531659730105 ] } },
{ "type": "Feature", "properties": { "CULTURE_": 65477.0, "CULTURE_ID": 65477.0, "CUL_PTYPE": 6100.0, "CUL_PNAME": "ไม่มีข้อมูล", "DESC_": "โรงเรียน", "REMARK": null }, "geometry": { "type": "Point", "coordinates": [ 100.505712630517294, 13.751560618057336 ] } },
{ "type": "Feature", "properties": { "CULTURE_": 65478.0, "CULTURE_ID": 65478.0, "CUL_PTYPE": 6100.0, "CUL_PNAME": "โรงเรียนกิ่งเพชร", "DESC_": "โรงเรียน", "REMARK": null }, "geometry": { "type": "Point", "coordinates": [ 100.529816851061241, 13.751367314324298 ] } },
{ "type": "Feature", "properties": { "CULTURE_": 65479.0, "CULTURE_ID": 65479.0, "CUL_PTYPE": 6100.0, "CUL_PNAME": "กรุงเทพการบัญชีวิทยาลัย", "DESC_": "โรงเรียน", "REMARK": null }, "geometry": { "type": "Point", "coordinates": [ 100.534929922322206, 13.751253210414429 ] } },
{ "type": "Feature", "properties": { "CULTURE_": 65480.0, "CULTURE_ID": 65480.0, "CUL_PTYPE": 6100.0, "CUL_PNAME": "ไม่มีข้อมูล", "DESC_": "โรงเรียน", "REMARK": null }, "geometry": { "type": "Point", "coordinates": [ 100.51474609827757, 13.751086211954794 ] } },
{ "type": "Feature", "properties": { "CULTURE_": 65481.0, "CULTURE_ID": 65481.0, "CUL_PTYPE": 6100.0, "CUL_PNAME": "ไม่มีข้อมูล", "DESC_": "โรงเรียน", "REMARK": null }, "geometry": { "type": "Point", "coordinates": [ 100.501920107936101, 13.751082364633829 ] } },
{ "type": "Feature", "properties": { "CULTURE_": 65482.0, "CULTURE_ID": 65482.0, "CUL_PTYPE": 6100.0, "CUL_PNAME": "ไม่มีข้อมูล", "DESC_": "โรงเรียน", "REMARK": null }, "geometry": { "type": "Point", "coordinates": [ 100.52507587752612, 13.750724932636738 ] } },
{ "type": "Feature", "properties": { "CULTURE_": 65483.0, "CULTURE_ID": 65483.0, "CUL_PTYPE": 6100.0, "CUL_PNAME": "วิทยาลัยสารพัดช่าง", "DESC_": "โรงเรียน", "REMARK": null }, "geometry": { "type": "Point", "coordinates": [ 100.506188906552694, 13.750814471718975 ] } },
{ "type": "Feature", "properties": { "CULTURE_": 65484.0, "CULTURE_ID": 65484.0, "CUL_PTYPE": 6100.0, "CUL_PNAME": "ไม่มีข้อมูล", "DESC_": "โรงเรียน", "REMARK": null }, "geometry": { "type": "Point", "coordinates": [ 100.502416812910226, 13.750453494803947 ] } },
{ "type": "Feature", "properties": { "CULTURE_": 65485.0, "CULTURE_ID": 65485.0, "CUL_PTYPE": 6100.0, "CUL_PNAME": "โรงเรียนบ้านบัวมล", "DESC_": "โรงเรียน", "REMARK": null }, "geometry": { "type": "Point", "coordinates": [ 100.655372903531998, 13.880987978161302 ] } },
{ "type": "Feature", "properties": { "CULTURE_": 65486.0, "CULTURE_ID": 65486.0, "CUL_PTYPE": 6100.0, "CUL_PNAME": "โรงเรียนนานาชาติเซนต์จอห์น", "DESC_": "โรงเรียน", "REMARK": null }, "geometry": { "type": "Point", "coordinates": [ 100.560787755553818, 13.81138423367994 ] } },
{ "type": "Feature", "properties": { "CULTURE_": 65487.0, "CULTURE_ID": 65487.0, "CUL_PTYPE": 6100.0, "CUL_PNAME": "ไม่มีข้อมูล", "DESC_": "โรงเรียน", "REMARK": null }, "geometry": { "type": "Point", "coordinates": [ 100.650442991045338, 13.749486338156718 ] } },
{ "type": "Feature", "properties": { "CULTURE_": 65488.0, "CULTURE_ID": 65488.0, "CUL_PTYPE": 6100.0, "CUL_PNAME": "ไม่มีข้อมูล", "DESC_": "โรงเรียน", "REMARK": null }, "geometry": { "type": "Point", "coordinates": [ 100.674397129818686, 13.749324236838637 ] } },
{ "type": "Feature", "properties": { "CULTURE_": 65489.0, "CULTURE_ID": 65489.0, "CUL_PTYPE": 6100.0, "CUL_PNAME": "ไม่มีข้อมูล", "DESC_": "โรงเรียน", "REMARK": null }, "geometry": { "type": "Point", "coordinates": [ 100.559760694283653, 13.749774079812044 ] } },
{ "type": "Feature", "properties": { "CULTURE_": 65490.0, "CULTURE_ID": 65490.0, "CUL_PTYPE": 6100.0, "CUL_PNAME": "ไม่มีข้อมูล", "DESC_": "โรงเรียน", "REMARK": null }, "geometry": { "type": "Point", "coordinates": [ 100.569277454886773, 13.749645324853793 ] } },
{ "type": "Feature", "properties": { "CULTURE_": 65491.0, "CULTURE_ID": 65491.0, "CUL_PTYPE": 6100.0, "CUL_PNAME": "ไม่มีข้อมูล", "DESC_": "โรงเรียน", "REMARK": null }, "geometry": { "type": "Point", "coordinates": [ 100.603332925903544, 13.749081033319069 ] } },
{ "type": "Feature", "properties": { "CULTURE_": 65492.0, "CULTURE_ID": 65492.0, "CUL_PTYPE": 6100.0, "CUL_PNAME": "ไม่มีข้อมูล", "DESC_": "โรงเรียน", "REMARK": null }, "geometry": { "type": "Point", "coordinates": [ 100.724617786411258, 13.748183080036076 ] } },
{ "type": "Feature", "properties": { "CULTURE_": 65493.0, "CULTURE_ID": 65493.0, "CUL_PTYPE": 6100.0, "CUL_PNAME": "ไม่มีข้อมูล", "DESC_": "โรงเรียน", "REMARK": null }, "geometry": { "type": "Point", "coordinates": [ 100.629238761514699, 13.748762108214711 ] } },
{ "type": "Feature", "properties": { "CULTURE_": 65494.0, "CULTURE_ID": 65494.0, "CUL_PTYPE": 6100.0, "CUL_PNAME": "ไม่มีข้อมูล", "DESC_": "โรงเรียน", "REMARK": null }, "geometry": { "type": "Point", "coordinates": [ 100.508034358508979, 13.749316879976952 ] } },
{ "type": "Feature", "properties": { "CULTURE_": 65495.0, "CULTURE_ID": 65495.0, "CUL_PTYPE": 6100.0, "CUL_PNAME": "ไม่มีข้อมูล", "DESC_": "โรงเรียน", "REMARK": null }, "geometry": { "type": "Point", "coordinates": [ 100.629603707812876, 13.748441969390541 ] } },
{ "type": "Feature", "properties": { "CULTURE_": 65496.0, "CULTURE_ID": 65496.0, "CUL_PTYPE": 6100.0, "CUL_PNAME": "ไม่มีข้อมูล", "DESC_": "โรงเรียน", "REMARK": null }, "geometry": { "type": "Point", "coordinates": [ 100.551892434410362, 13.748808339445723 ] } },
{ "type": "Feature", "properties": { "CULTURE_": 65497.0, "CULTURE_ID": 65497.0, "CUL_PTYPE": 6100.0, "CUL_PNAME": "ไม่มีข้อมูล", "DESC_": "โรงเรียน", "REMARK": null }, "geometry": { "type": "Point", "coordinates": [ 100.552971479086239, 13.748741814212581 ] } },
{ "type": "Feature", "properties": { "CULTURE_": 65498.0, "CULTURE_ID": 65498.0, "CUL_PTYPE": 6100.0, "CUL_PNAME": "ไม่มีข้อมูล", "DESC_": "โรงเรียน", "REMARK": null }, "geometry": { "type": "Point", "coordinates": [ 100.559468315462624, 13.748680894606311 ] } },
{ "type": "Feature", "properties": { "CULTURE_": 65499.0, "CULTURE_ID": 65499.0, "CUL_PTYPE": 6100.0, "CUL_PNAME": "โรงเรียนอาชีวเฉลิมศาสน์", "DESC_": "โรงเรียน", "REMARK": null }, "geometry": { "type": "Point", "coordinates": [ 100.582684758190567, 13.748164987404339 ] } },
{ "type": "Feature", "properties": { "CULTURE_": 65500.0, "CULTURE_ID": 65500.0, "CUL_PTYPE": 6100.0, "CUL_PNAME": "ไม่มีข้อมูล", "DESC_": "โรงเรียน", "REMARK": null }, "geometry": { "type": "Point", "coordinates": [ 100.500710449026485, 13.748340891256777 ] } },
{ "type": "Feature", "properties": { "CULTURE_": 65501.0, "CULTURE_ID": 65501.0, "CUL_PTYPE": 6100.0, "CUL_PNAME": "ไม่มีข้อมูล", "DESC_": "โรงเรียน", "REMARK": null }, "geometry": { "type": "Point", "coordinates": [ 100.642950282985964, 13.747393920049131 ] } },
{ "type": "Feature", "properties": { "CULTURE_": 65502.0, "CULTURE_ID": 65502.0, "CUL_PTYPE": 6100.0, "CUL_PNAME": "ไม่มีข้อมูล", "DESC_": "โรงเรียน", "REMARK": null }, "geometry": { "type": "Point", "coordinates": [ 100.523439417965164, 13.747997453996765 ] } },
{ "type": "Feature", "properties": { "CULTURE_": 65503.0, "CULTURE_ID": 65503.0, "CUL_PTYPE": 6100.0, "CUL_PNAME": "ไม่มีข้อมูล", "DESC_": "โรงเรียน", "REMARK": null }, "geometry": { "type": "Point", "coordinates": [ 100.623718769608431, 13.747101145330836 ] } },
{ "type": "Feature", "properties": { "CULTURE_": 65504.0, "CULTURE_ID": 65504.0, "CUL_PTYPE": 6100.0, "CUL_PNAME": "มหาวิทยาลัยศรีนคริทรวิโรฒ", "DESC_": "โรงเรียน", "REMARK": null }, "geometry": { "type": "Point", "coordinates": [ 100.518298969534513, 13.747702586660685 ] } },
{ "type": "Feature", "properties": { "CULTURE_": 65505.0, "CULTURE_ID": 65505.0, "CUL_PTYPE": 6100.0, "CUL_PNAME": "ไม่มีข้อมูล", "DESC_": "โรงเรียน", "REMARK": null }, "geometry": { "type": "Point", "coordinates": [ 100.674558700195917, 13.74668787829907 ] } },
{ "type": "Feature", "properties": { "CULTURE_": 65506.0, "CULTURE_ID": 65506.0, "CUL_PTYPE": 6100.0, "CUL_PNAME": "สถาบันเทคโนโลยีปทุมวัน", "DESC_": "โรงเรียน", "REMARK": null }, "geometry": { "type": "Point", "coordinates": [ 100.525862756601782, 13.747571551255177 ] } },
{ "type": "Feature", "properties": { "CULTURE_": 65507.0, "CULTURE_ID": 65507.0, "CUL_PTYPE": 6100.0, "CUL_PNAME": "ไม่มีข้อมูล", "DESC_": "โรงเรียน", "REMARK": null }, "geometry": { "type": "Point", "coordinates": [ 100.505714867213328, 13.747578670026884 ] } },
{ "type": "Feature", "properties": { "CULTURE_": 65508.0, "CULTURE_ID": 65508.0, "CUL_PTYPE": 6100.0, "CUL_PNAME": "ไม่มีข้อมูล", "DESC_": "โรงเรียน", "REMARK": null }, "geometry": { "type": "Point", "coordinates": [ 100.516064836577286, 13.74744923815217 ] } },
{ "type": "Feature", "properties": { "CULTURE_": 65509.0, "CULTURE_ID": 65509.0, "CUL_PTYPE": 6100.0, "CUL_PNAME": "ไม่มีข้อมูล", "DESC_": "โรงเรียน", "REMARK": null }, "geometry": { "type": "Point", "coordinates": [ 100.559824758984078, 13.747145593078875 ] } },
{ "type": "Feature", "properties": { "CULTURE_": 65510.0, "CULTURE_ID": 65510.0, "CUL_PTYPE": 6100.0, "CUL_PNAME": "โรงเรียนอาชีวเฉลิมศาสน์", "DESC_": "โรงเรียน", "REMARK": null }, "geometry": { "type": "Point", "coordinates": [ 100.574950096310886, 13.746720318168755 ] } },
{ "type": "Feature", "properties": { "CULTURE_": 65511.0, "CULTURE_ID": 65511.0, "CUL_PTYPE": 6100.0, "CUL_PNAME": "ไม่มีข้อมูล", "DESC_": "โรงเรียน", "REMARK": null }, "geometry": { "type": "Point", "coordinates": [ 100.590059013013615, 13.746546759466598 ] } },
{ "type": "Feature", "properties": { "CULTURE_": 65512.0, "CULTURE_ID": 65512.0, "CUL_PTYPE": 6100.0, "CUL_PNAME": "ไม่มีข้อมูล", "DESC_": "โรงเรียน", "REMARK": null }, "geometry": { "type": "Point", "coordinates": [ 100.536045345630015, 13.746637332368344 ] } },
{ "type": "Feature", "properties": { "CULTURE_": 65513.0, "CULTURE_ID": 65513.0, "CUL_PTYPE": 6100.0, "CUL_PNAME": "ไม่มีข้อมูล", "DESC_": "โรงเรียน", "REMARK": null }, "geometry": { "type": "Point", "coordinates": [ 100.625683341969221, 13.745984610381445 ] } },
{ "type": "Feature", "properties": { "CULTURE_": 65514.0, "CULTURE_ID": 65514.0, "CUL_PTYPE": 6100.0, "CUL_PNAME": "ไม่มีข้อมูล", "DESC_": "โรงเรียน", "REMARK": null }, "geometry": { "type": "Point", "coordinates": [ 100.544627828296527, 13.746474953510539 ] } },
{ "type": "Feature", "properties": { "CULTURE_": 65515.0, "CULTURE_ID": 65515.0, "CUL_PTYPE": 6100.0, "CUL_PNAME": "โรงเรียนศรีพฦฒา", "DESC_": "โรงเรียน", "REMARK": null }, "geometry": { "type": "Point", "coordinates": [ 100.694918001651018, 13.744972644336118 ] } },
{ "type": "Feature", "properties": { "CULTURE_": 65516.0, "CULTURE_ID": 65516.0, "CUL_PTYPE": 6100.0, "CUL_PNAME": "ไม่มีข้อมูล", "DESC_": "โรงเรียน", "REMARK": null }, "geometry": { "type": "Point", "coordinates": [ 100.513266356857784, 13.745696040746489 ] } },
{ "type": "Feature", "properties": { "CULTURE_": 65517.0, "CULTURE_ID": 65517.0, "CUL_PTYPE": 6100.0, "CUL_PNAME": "ไม่มีข้อมูล", "DESC_": "โรงเรียน", "REMARK": null }, "geometry": { "type": "Point", "coordinates": [ 100.653152779315676, 13.74468664547183 ] } },
{ "type": "Feature", "properties": { "CULTURE_": 65518.0, "CULTURE_ID": 65518.0, "CUL_PTYPE": 6100.0, "CUL_PNAME": "ไม่มีข้อมูล", "DESC_": "โรงเรียน", "REMARK": null }, "geometry": { "type": "Point", "coordinates": [ 100.564124143993524, 13.74506896998593 ] } },
{ "type": "Feature", "properties": { "CULTURE_": 65519.0, "CULTURE_ID": 65519.0, "CUL_PTYPE": 6100.0, "CUL_PNAME": "ไม่มีข้อมูล", "DESC_": "โรงเรียน", "REMARK": null }, "geometry": { "type": "Point", "coordinates": [ 100.509627463872263, 13.744998184294069 ] } },
{ "type": "Feature", "properties": { "CULTURE_": 65520.0, "CULTURE_ID": 65520.0, "CUL_PTYPE": 6100.0, "CUL_PNAME": "ไม่มีข้อมูล", "DESC_": "โรงเรียน", "REMARK": null }, "geometry": { "type": "Point", "coordinates": [ 100.699696780978201, 13.743493979662802 ] } },
{ "type": "Feature", "properties": { "CULTURE_": 65521.0, "CULTURE_ID": 65521.0, "CUL_PTYPE": 6100.0, "CUL_PNAME": "ไม่มีข้อมูล", "DESC_": "โรงเรียน", "REMARK": null }, "geometry": { "type": "Point", "coordinates": [ 100.559785422196228, 13.744278845004231 ] } },
{ "type": "Feature", "properties": { "CULTURE_": 65522.0, "CULTURE_ID": 65522.0, "CUL_PTYPE": 6100.0, "CUL_PNAME": "ไม่มีข้อมูล", "DESC_": "โรงเรียน", "REMARK": null }, "geometry": { "type": "Point", "coordinates": [ 100.579484108130401, 13.744053306292113 ] } },
{ "type": "Feature", "properties": { "CULTURE_": 65523.0, "CULTURE_ID": 65523.0, "CUL_PTYPE": 6100.0, "CUL_PNAME": "ไม่มีข้อมูล", "DESC_": "โรงเรียน", "REMARK": null }, "geometry": { "type": "Point", "coordinates": [ 100.700030084829493, 13.743060033538015 ] } },
{ "type": "Feature", "properties": { "CULTURE_": 65524.0, "CULTURE_ID": 65524.0, "CUL_PTYPE": 6100.0, "CUL_PNAME": "ไม่มีข้อมูล", "DESC_": "โรงเรียน", "REMARK": null }, "geometry": { "type": "Point", "coordinates": [ 100.696254786823729, 13.742988843150698 ] } },
{ "type": "Feature", "properties": { "CULTURE_": 65525.0, "CULTURE_ID": 65525.0, "CUL_PTYPE": 6100.0, "CUL_PNAME": "โรงเรียนพณิชยการเอเชีย", "DESC_": "โรงเรียน", "REMARK": null }, "geometry": { "type": "Point", "coordinates": [ 100.730787644659372, 13.742546866310777 ] } },
{ "type": "Feature", "properties": { "CULTURE_": 65526.0, "CULTURE_ID": 65526.0, "CUL_PTYPE": 6100.0, "CUL_PNAME": "ไม่มีข้อมูล", "DESC_": "โรงเรียน", "REMARK": null }, "geometry": { "type": "Point", "coordinates": [ 100.505827033433519, 13.743995193329887 ] } },
{ "type": "Feature", "properties": { "CULTURE_": 65527.0, "CULTURE_ID": 65527.0, "CUL_PTYPE": 6100.0, "CUL_PNAME": "ไม่มีข้อมูล", "DESC_": "โรงเรียน", "REMARK": null }, "geometry": { "type": "Point", "coordinates": [ 100.580428273653723, 13.743317864674033 ] } },
{ "type": "Feature", "properties": { "CULTURE_": 65528.0, "CULTURE_ID": 65528.0, "CUL_PTYPE": 6100.0, "CUL_PNAME": "มหาวิทยาลัยศรีนครินทรวิโรฒคณะพลศึกษา", "DESC_": "โรงเรียน", "REMARK": null },